"license","Licensee Information","Business Name:","License Number:","In Business:","Location Address:","City/Town:","State:","Telephone Number:","Trade Name","Address","Town","County","License #","Permissions","Expiration Date","On or Off","latitude","longitude","accuracy","marker-size","marker-color","marker-symbol"
"100",NA,"CUMBERLAND FARMS #5618","100","Yes","535 MAIN STREET","SACO","ME","207-282-4276","CUMBERLAND FARMS #5618","535 MAIN STREET","SACO","YORK","100","M-V","12/14/2015","OFF",43.661471,43.661471,"locality","small","#4f4","restaurant"
"1010",NA,"RITE AID #4162","1010","Yes","119 BRIDGTON ROAD","FRYEBURG","ME","717-214-8543","RITE AID #4162","119 BRIDGTON ROAD","FRYEBURG","OXFORD","1010","M-V","03/25/2015","OFF",43.6770252,43.6770252,"locality","small","#4f4","restaurant"
"1011",NA,"CVS PHARMACY #7410","1011","Yes","48 PORTLAND ROAD","KENNEBUNK","ME","207-467-8299","CVS PHARMACY #7410","48 PORTLAND ROAD","KENNEBUNK","YORK","1011","M-V","06/09/2015","OFF",43.5901974,43.5901974,"locality","small","#4f4","restaurant"
"1040",NA,"HANNAFORD #8384","1040","Yes","5 HANNAFORD DRIVE","YORK","ME","207-363-5357","HANNAFORD #8384","5 HANNAFORD DRIVE","YORK","YORK","1040","M-V","10/27/2015","OFF",44.1113005,44.1113005,"street_address","small","#4f4","restaurant"
"1050",NA,"CAPITAL MARKET","1050","Yes","17 WEST GRAND AVENUE","OLD ORCHARD BEACH","ME","934-9368","CAPITAL MARKET","17 WEST GRAND AVENUE","OLD ORCHARD BEACH","YORK","1050","M-V","05/03/2015","OFF",43.652908,43.652908,"street_address","small","#4f4","restaurant"
"1051",NA,"CVS PHARMACY #454","1051","Yes","510 CONGRESS STREET","PORTLAND","ME","207-774-4525","CVS PHARMACY #454","510 CONGRESS STREET","PORTLAND","CUMBERLAND","1051","M-V","06/27/2015","OFF",43.8427589,43.8427589,"street_address","small","#4f4","restaurant"
"1058",NA,"KENNEBUNK XTRA MART","1058","Yes","88 MAIN STREET","KENNEBUNK","ME","985-3259","KENNEBUNK XTRA MART","88 MAIN STREET","KENNEBUNK","YORK","1058","M-V","02/01/2015","OFF",43.661471,43.661471,"locality","small","#4f4","restaurant"
"1062",NA,"WINE & CHEESE SHOP, THE","1062","Yes","259 POST ROAD","MOODY","ME","646-9959","WINE & CHEESE SHOP, THE","259 POST ROAD","MOODY","YORK","1062","V-M","12/14/2014","OFF",43.674824,43.674824,"street_address","small","#4f4","restaurant"
"1063",NA,"SLEEPER'S","1063","Yes","45A LEBANON STREET","SANFORD","ME","324-7371","SLEEPER'S","45A LEBANON STREET","SANFORD","YORK","1063","V-M","07/05/2015","OFF",43.6398881,43.6398881,"street_address","small","#4f4","restaurant"
"1067",NA,"AIRPORT VARIETY","1067","Yes","1829 MAIN STREET","SANFORD","ME","324-8815","AIRPORT VARIETY","1829 MAIN STREET","SANFORD","YORK","1067","M-V","02/07/2015","OFF",43.8628452,43.8628452,"street_address","small","#4f4","restaurant"
"1074",NA,"CIRCLE K #7062","1074","Yes","162 HAROLD L. DOW HWY","ELIOT","ME","207-439-0945","CIRCLE K #7062","162 HAROLD L. DOW HWY","ELIOT","YORK","1074","V-M","07/15/2015","OFF",43.657671,43.657671,"street_address","small","#4f4","restaurant"
"1076",NA,"YORK BEACH GROCERY AND DELI","1076","Yes","9 OCEAN AVENUE","YORK BEACH","ME","207-363-9195","YORK BEACH GROCERY AND DELI","9 OCEAN AVENUE","YORK BEACH","YORK","1076","M-V","05/14/2015","OFF",43.6527905,43.6527905,"street_address","small","#4f4","restaurant"
"1086",NA,"LODGE ON THE COVE, THE","1086","Yes","29 SOUTH MAIN STREET","KENNEBUNKPORT","ME","207-967-3993","LODGE ON THE COVE, THE","29 SOUTH MAIN STREET","KENNEBUNKPORT","YORK","1086","V-M","08/03/2015","OFF",43.8092095,43.8092095,"street_address","small","#4f4","restaurant"
"109",NA,"SALTY ACRES CAMPGROUND","109","Yes","277 MILLS ROAD - ROUTE 9","KENNEBUNKPORT","ME","967-2483","SALTY ACRES CAMPGROUND","277 MILLS ROAD - ROUTE 9","KENNEBUNKPORT","YORK","109","M-V","06/30/2015","OFF",43.6355665,43.6355665,"street_address","small","#4f4","restaurant"
"1099",NA,"CIGARETTE CITY #2","1099","Yes","44 RIVER STREET","SANFORD","ME","324-5089","CIGARETTE CITY #2","44 RIVER STREET","SANFORD","YORK","1099","V-M","07/22/2015","OFF",43.962758,43.962758,"street_address","small","#4f4","restaurant"
"1101",NA,"VERANDA ASIAN MARKET, LLC","1101","Yes","695 FOREST AVENUE","PORTLAND","ME","207-874-8001","VERANDA ASIAN MARKET, LLC","695 FOREST AVENUE","PORTLAND","CUMBERLAND","1101","V-M","12/06/2014","OFF",43.6414716,43.6414716,"locality","small","#4f4","restaurant"
"1105",NA,"LIL' GENERAL STORE","1105","Yes","8 COUNTRY CLUB ROAD","SANFORD","ME","207-409-3752","LIL' GENERAL STORE","8 COUNTRY CLUB ROAD","SANFORD","YORK","1105","M-V","08/26/2015","OFF",43.659247,43.659247,"street_address","small","#4f4","restaurant"
"1115",NA,"SUN TRS WILD ACRES, LLC","1115","Yes","179 SACO AVENUE","OLD ORCHARD BEACH","ME","207-934-2535","SUN TRS WILD ACRES, LLC","179 SACO AVENUE","OLD ORCHARD BEACH","YORK","1115","V-M","06/04/2015","OFF",43.6469651,43.6469651,"street_address","small","#4f4","restaurant"
"1119",NA,"ZAHARES MARKET","1119","Yes","8 HEATH STREET","OLD ORCHARD BEACH","ME","207-937-8124","ZAHARES MARKET","8 HEATH STREET","OLD ORCHARD BEACH","YORK","1119","V-M","07/23/2015","OFF",43.8039879,43.8039879,"street_address","small","#4f4","restaurant"
"112",NA,"DIMILLO'S OLD PORT MARINA","112","Yes","1  LONG WHARF","PORTLAND","ME","207-773-7632","DIMILLO'S OLD PORT MARINA","1  LONG WHARF","PORTLAND","CUMBERLAND","112","V-M","04/08/2015","OFF",43.587231,43.587231,"street_address","small","#4f4","restaurant"
"1129",NA,"BEACHCOMBER, THE","1129","Yes","388 MILE ROAD","WELLS","ME","646-7726","BEACHCOMBER, THE","388 MILE ROAD","WELLS","YORK","1129","V-M","04/30/2015","OFF",43.6352108,43.6352108,"street_address","small","#4f4","restaurant"
"1136",NA,"FERNLEAF BAKERY AND COFFEE HOUSE","1136","Yes","20 FREE STREET","SACO","ME","207-286-3376","FERNLEAF BAKERY AND COFFEE HOUSE","20 FREE STREET","SACO","YORK","1136","M-V","06/11/2015","OFF",43.6787266,43.6787266,"street_address","small","#4f4","restaurant"
"1141",NA,"MICUCCI GROCERY COMPANY, INC.","1141","Yes","45 INDIA STREET","PORTLAND","ME","775-1854","MICUCCI GROCERY COMPANY, INC.","45 INDIA STREET","PORTLAND","CUMBERLAND","1141","V","12/18/2014","OFF",43.8815607,43.8815607,"street_address","small","#4f4","restaurant"
"115",NA,"TEN TEN PIE","115","Yes","171 CUMBERLAND AVENUE","PORTLAND","ME","807-2681","TEN TEN PIE","171 CUMBERLAND AVENUE","PORTLAND","CUMBERLAND","115","M-V","08/18/2015","OFF",43.6770863,43.6770863,"street_address","small","#4f4","restaurant"
"1151",NA,"LA BODEGA LATINA GROCERY PORTLAND, LLC","1151","Yes","863 CONGRESS STREET","PORTLAND","ME","207-761-6661","LA BODEGA LATINA GROCERY PORTLAND, LLC","863 CONGRESS STREET","PORTLAND","CUMBERLAND","1151","M-V","10/10/2015","OFF",43.7461908,43.7461908,"street_address","small","#4f4","restaurant"
"1155",NA,"CENTER LOVELL MARKET II","1155","Yes","1007 MAIN STREET","LOVELL","ME","207-925-1051","CENTER LOVELL MARKET II","1007 MAIN STREET","LOVELL","OXFORD","1155","V-M","01/26/2015","OFF",43.6640183,43.6640183,"street_address","small","#4f4","restaurant"
"1163",NA,"TOWN LINE DELI","1163","Yes","134 MAIN STREET  A","WATERBORO","ME","247-1031","TOWN LINE DELI","134 MAIN STREET  A","WATERBORO","YORK","1163","M","09/12/2015","OFF",43.5944145,43.5944145,"street_address","small","#4f4","restaurant"
"1169",NA,"SHEILA'S COUNTRY STORE","1169","Yes","178 EAST GRAND","OLD ORCHARD BEACH","ME","934-3569","SHEILA'S COUNTRY STORE","178 EAST GRAND","OLD ORCHARD BEACH","YORK","1169","M-V","05/13/2015","OFF",43.6631948,43.6631948,"street_address","small","#4f4","restaurant"
"1183",NA,"HANNAFORD #8225","1183","Yes","299 ELM STREET","BIDDEFORD","ME","207-284-8677","HANNAFORD #8225","299 ELM STREET","BIDDEFORD","YORK","1183","V-M","11/22/2015","OFF",43.6544619,43.6544619,"street_address","small","#4f4","restaurant"
"1185",NA,"ALFRED COUNTRY STORE","1185","Yes","3 SACO ROAD","ALFRED","ME","324-7719","ALFRED COUNTRY STORE","3 SACO ROAD","ALFRED","YORK","1185","V-M","07/08/2015","OFF",43.862496,43.862496,"street_address","small","#4f4","restaurant"
"1193",NA,"OLD ORCHARD BEACH CAMPGROUND","1193","Yes","27 OCEAN PARK ROAD","OLD ORCHARD BEACH","ME","207-934-4477","OLD ORCHARD BEACH CAMPGROUND","27 OCEAN PARK ROAD","OLD ORCHARD BEACH","YORK","1193","M-V","04/29/2015","OFF",43.656642,43.656642,"street_address","small","#4f4","restaurant"
"1196",NA,"COLONIAL PHARMACY","1196","Yes","40 DOCK SQUARE","KENNEBUNKPORT","ME","967-4442","COLONIAL PHARMACY","40 DOCK SQUARE","KENNEBUNKPORT","YORK","1196","V","12/31/2014","OFF",43.7457061,43.7457061,"street_address","small","#4f4","restaurant"
"120",NA,"WESTON'S FARM, LLC","120","Yes","48 RIVER STREET","FRYEBURG","ME","207-935-2567","WESTON'S FARM, LLC","48 RIVER STREET","FRYEBURG","OXFORD","120","V","04/25/2015","OFF",43.6753566,43.6753566,"street_address","small","#4f4","restaurant"
"1200",NA,"RAY'S MARKET","1200","Yes","110 WEST STREET","BIDDEFORD","ME","284-7664","RAY'S MARKET","110 WEST STREET","BIDDEFORD","YORK","1200","V-M","09/24/2015","OFF",43.661471,43.661471,"locality","small","#4f4","restaurant"
"1201",NA,"WALGREENS #12400","1201","Yes","868 MAIN STREET","SANFORD","ME","207-490-4008","WALGREENS #12400","868 MAIN STREET","SANFORD","YORK","1201","V-M","04/04/2015","OFF",43.6542716,43.6542716,"street_address","small","#4f4","restaurant"
"1205",NA,"LIL  MART FRYEBURG","1205","Yes","501 MAIN STREET","FRYEBURG","ME","207-935-4190","LIL  MART FRYEBURG","501 MAIN STREET","FRYEBURG","OXFORD","1205","V-M","12/10/2015","OFF",43.6574813,43.6574813,"street_address","small","#4f4","restaurant"
"1208",NA,"DEPOT, THE","1208","Yes","146 PLEASANT STREET","SPRINGVALE","ME","324-5755","DEPOT, THE","146 PLEASANT STREET","SPRINGVALE","YORK","1208","V-M","07/11/2015","OFF",43.6197142,43.6197142,"street_address","small","#4f4","restaurant"
"1222",NA,"NORTHGATE MOBIL","1222","Yes","1397 WASHINGTON AVENUE","PORTLAND","ME","797-4077","NORTHGATE MOBIL","1397 WASHINGTON AVENUE","PORTLAND","CUMBERLAND","1222","M-V","09/06/2015","OFF",43.651727,43.651727,"street_address","small","#4f4","restaurant"
"1223",NA,"LONG SANDS GENERAL STORE","1223","Yes","121 LONG BEACH AVENUE","YORK BEACH","ME","363-5383","LONG SANDS GENERAL STORE","121 LONG BEACH AVENUE","YORK BEACH","YORK","1223","M-V","04/28/2015","OFF",43.6332522,43.6332522,"street_address","small","#4f4","restaurant"
"1226",NA,"AMATO'S","1226","Yes","469 MAIN STREET","SACO","ME","286-2377","AMATO'S","469 MAIN STREET","SACO","YORK","1226","M-V","12/31/2014","OFF",43.8570065,43.8570065,"locality","small","#4f4","restaurant"
"1239",NA,"WILLYS MARKET","1239","Yes","1060 ROUTE 109","ACTON","ME","207-636-3369","WILLYS MARKET","1060 ROUTE 109","ACTON","YORK","1239","V-M","05/13/2015","OFF",43.685662,43.685662,"street_address","small","#4f4","restaurant"
"1244",NA,"RED ROCKET SMOKE SHOP","1244","Yes","80 BIRCH STREET","BIDDEFORD","ME","409-8444","RED ROCKET SMOKE SHOP","80 BIRCH STREET","BIDDEFORD","YORK","1244","V-M","04/16/2015","OFF",43.7366927,43.7366927,"natural_feature","small","#4f4","restaurant"
"1248",NA,"MOBY DICK VARIETY","1248","Yes","74 EAST GRAND AVENUE","OLD ORCHARD BEACH","ME","934-5420","MOBY DICK VARIETY","74 EAST GRAND AVENUE","OLD ORCHARD BEACH","YORK","1248","V-M","10/27/2015","OFF",43.6853956,43.6853956,"street_address","small","#4f4","restaurant"
"1250",NA,"HAMPTON INN PORTLAND DOWNTOWN WATERFRONT","1250","Yes","209 FORE STREET","PORTLAND","ME","561-802-4477","HAMPTON INN PORTLAND DOWNTOWN
WATERFRONT","209 FORE STREET","PORTLAND","CUMBERLAND","1250","M-V","04/21/2015","OFF",43.677577,43.677577,"street_address","small","#4f4","restaurant"
"1252",NA,"CLAM SHELL CAFE & TAKEOUT","1252","Yes","23 MAIN AVENUE","SACO","ME","282-7977","CLAM SHELL CAFE & TAKEOUT","23 MAIN AVENUE","SACO","YORK","1252","M-V","04/30/2015","OFF",43.6603283,43.6603283,"street_address","small","#4f4","restaurant"
"1257",NA,"HANNAFORD FOOD & DRUG #8354","1257","Yes","787 RIVERSIDE STREET","PORTLAND","ME","878-0191","HANNAFORD FOOD & DRUG #8354","787 RIVERSIDE STREET","PORTLAND","CUMBERLAND","1257","V-M","05/11/2015","OFF",43.6369871,43.6369871,"premise","small","#4f4","restaurant"
"1274",NA,"WHOLE FOODS MARKET","1274","Yes","2 SOMERSET STREET","PORTLAND","ME","207-774-7711","WHOLE FOODS MARKET","2 SOMERSET STREET","PORTLAND","CUMBERLAND","1274","M-V","02/13/2015","OFF",43.7274383,43.7274383,"street_address","small","#4f4","restaurant"
"1276",NA,"MOBIL ON THE RUN FRYEBURG","1276","Yes","496 MAIN STREET","FRYEBURG","ME","207-935-1228","MOBIL ON THE RUN FRYEBURG","496 MAIN STREET","FRYEBURG","OXFORD","1276","V-M","02/28/2015","OFF",43.6542768,43.6542768,"street_address","small","#4f4","restaurant"
"1280",NA,"EAST SIDE CONVENIENCE","1280","Yes","88 HIGH STREET","SANFORD","ME","207-651-1542","EAST SIDE CONVENIENCE","88 HIGH STREET","SANFORD","YORK","1280","V-M","06/18/2015","OFF",43.908476,43.908476,"street_address","small","#4f4","restaurant"
"1286",NA,"CRAFT BEER CELLAR, PORTLAND","1286","Yes","111 COMMERCIAL STREET","PORTLAND","ME","774-286-1046","CRAFT BEER CELLAR, PORTLAND","111 COMMERCIAL STREET","PORTLAND","CUMBERLAND","1286","M-V","08/27/2015","OFF",43.6551683,43.6551683,"street_address","small","#4f4","restaurant"
"1292",NA,"PIZZA JOINT, INC.","1292","Yes","448 FOREST AVENUE","PORTLAND","ME","797-3192","PIZZA JOINT, INC.","448 FOREST AVENUE","PORTLAND","CUMBERLAND","1292","M","03/28/2015","OFF",43.715031,43.715031,"street_address","small","#4f4","restaurant"
"1312",NA,"MELLEN STREET MARKET","1312","Yes","79 MELLEN STREET","PORTLAND","ME","772-2206","MELLEN STREET MARKET","79 MELLEN STREET","PORTLAND","CUMBERLAND","1312","V-M","02/06/2015","OFF",43.5698792,43.5698792,"subpremise","small","#4f4","restaurant"
"1320",NA,"CARL'S MEAT MARKET, LLC","1320","Yes","25 STATE ROAD","KITTERY","ME","439-1557","CARL'S MEAT MARKET, LLC","25 STATE ROAD","KITTERY","YORK","1320","M","06/06/2015","OFF",43.9088384,43.9088384,"street_address","small","#4f4","restaurant"
"1323",NA,"H.B. PROVISIONS","1323","Yes","15 WESTERN AVENUE","KENNEBUNK","ME","967-5762","H.B. PROVISIONS","15 WESTERN AVENUE","KENNEBUNK","YORK","1323","M-V","05/16/2015","OFF",43.879815,43.879815,"street_address","small","#4f4","restaurant"
"1324",NA,"GOOD BEER STORE, THE","1324","Yes","285 MAIN STREET    SUITE 6","FRYEBURG","ME","935-1162","GOOD BEER STORE, THE","285 MAIN STREET	 SUITE 6","FRYEBURG","OXFORD","1324","M-V","03/09/2015","OFF",43.6796708,43.6796708,"street_address","small","#4f4","restaurant"
"1336",NA,"7-ELEVEN #32530B","1336","Yes","169 STATE ROAD, ROUTE 1 KITTERY CIRCLE","KITTERY","ME","972-828-7536","7-ELEVEN #32530B","169 STATE ROAD, ROUTE 1 KITTERY CIRCLE","KITTERY","YORK","1336","V-M","07/11/2015","OFF",43.891796,43.891796,"street_address","small","#4f4","restaurant"
"1343",NA,"CAPT'N HOOKS SEAFOOD & TAKEOUT","1343","Yes","2118 POST ROAD","WELLS","ME","646-6646","CAPT'N HOOKS SEAFOOD & TAKEOUT","2118 POST ROAD","WELLS","YORK","1343","M-V","04/29/2015","OFF",43.653186,43.653186,"street_address","small","#4f4","restaurant"
"1344",NA,"LEROUX KITCHEN","1344","Yes","161 COMMERCIAL STREET","PORTLAND","ME","553-7665","LEROUX KITCHEN","161 COMMERCIAL STREET","PORTLAND","CUMBERLAND","1344","M-V","09/18/2015","OFF",43.7407786,43.7407786,"street_address","small","#4f4","restaurant"
"1347",NA,"OLD PORT SPIRITS AND CIGARS","1347","Yes","79 COMMERCIAL STREET","PORTLAND","ME","207-772-9463","OLD PORT SPIRITS AND CIGARS","79 COMMERCIAL STREET","PORTLAND","CUMBERLAND","1347","M-V","05/18/2015","OFF",43.6739552,43.6739552,"street_address","small","#4f4","restaurant"
"1350",NA,"BEA'S MARKETPLACE, LLC","1350","Yes","14 PORTLAND STREET","FRYEBURG","ME","207-935-3135","BEA'S MARKETPLACE, LLC","14 PORTLAND STREET","FRYEBURG","OXFORD","1350","M-V","06/20/2015","OFF",43.8412327,43.8412327,"street_address","small","#4f4","restaurant"
"1376",NA,"LEBANON HOUSE OF PIZZA","1376","Yes","413 CARL BROGGI HWY","LEBANON","ME","457-1010","LEBANON HOUSE OF PIZZA","413 CARL BROGGI HWY","LEBANON","YORK","1376","M","04/24/2015","OFF",43.6966729,43.6966729,"street_address","small","#4f4","restaurant"
"1381",NA,"CIRCLE K #7049","1381","Yes","454 US ROUTE 1","YORK","ME","207-363-9863","CIRCLE K #7049","454 US ROUTE 1","YORK","YORK","1381","M-V","07/15/2015","OFF",43.7590538,43.7590538,"route","small","#4f4","restaurant"
"1390",NA,"SACO BAY VARIETY","1390","Yes","216 BEACH STREET","SACO","ME","282-4400","SACO BAY VARIETY","216 BEACH STREET","SACO","YORK","1390","M-V","01/24/2015","OFF",43.6602159,43.6602159,"street_address","small","#4f4","restaurant"
"1396",NA,"GIBBS OIL CO., L.P.","1396","Yes","US ROUTE ONE","OGUNQUIT","ME","207-646-8490","GIBBS OIL CO., L.P.","US ROUTE ONE","OGUNQUIT","YORK","1396","V-M","04/12/2015","OFF",43.6582022,43.6582022,"street_address","small","#4f4","restaurant"
"1399",NA,"VILLAGE FOOD MARKET, INC.","1399","Yes","230  MAIN STREET","OGUNQUIT","ME","646-2122","VILLAGE FOOD MARKET, INC.","230  MAIN STREET","OGUNQUIT","YORK","1399","M-V","03/29/2015","OFF",43.6776625,43.6776625,"street_address","small","#4f4","restaurant"
"14-5004",NA,"STELLA'S SWEET CAFE","14-5004","Yes","1 GOVERNMENT ST #3","KITTERY","ME","703-2990","STELLA'S SWEET CAFE","1 GOVERNMENT ST #3","KITTERY","YORK","14-5004","M-V","05/12/2015","ON",43.9096868,43.9096868,"street_address","small","#f44","restaurant"
"14-5008",NA,"SO ZAP","14-5008","Yes","185 MAIN STREET","OGUNQUIT","ME","c","SO ZAP","185 MAIN STREET","OGUNQUIT","YORK","14-5008","S-V-M","05/07/2015","ON",43.593428,43.593428,"street_address","small","#f44","restaurant"
"14-5012",NA,"HOBBS HARBORSIDE","14-5012","Yes","352 HARBOR ROAD","WELLS","ME","251-2444","HOBBS HARBORSIDE","352 HARBOR ROAD","WELLS","YORK","14-5012","S-V-M","06/30/2015","ON",43.916443,43.916443,"street_address","small","#f44","restaurant"
"14-5016",NA,"LOS BANDITOS","14-5016","Yes","9 RENNAISANCE WAY","SOUTH SANFORD","ME","751-0251","LOS BANDITOS","9 RENNAISANCE WAY","SOUTH SANFORD","YORK","14-5016","S-V-M","06/09/2015","ON",43.6526948,43.6526948,"street_address","small","#f44","restaurant"
"14-5017",NA,"KING'S HEAD, THE","14-5017","Yes","254 COMMERCIAL STREET","PORTLAND","ME","518-637-8784","KING'S HEAD, THE","254 COMMERCIAL STREET","PORTLAND","CUMBERLAND","14-5017","S-V-M","06/03/2015","ON",43.654318,43.654318,"street_address","small","#f44","restaurant"
"14-5031",NA,"LAS OLAS TAQUERIA","14-5031","Yes","1517 POST ROAD","WELLS","ME","603-231-7057","LAS OLAS TAQUERIA","1517 POST ROAD","WELLS","YORK","14-5031","S-V-M","06/30/2015","ON",43.814768,43.814768,"street_address","small","#f44","restaurant"
"14-5034",NA,"BUFFLEHEADS RESTAURANT","14-5034","Yes","122 HILLS BEACH ROAD","BIDDEFORD","ME","284-6000","BUFFLEHEADS RESTAURANT","122 HILLS BEACH ROAD","BIDDEFORD","YORK","14-5034","M-V","06/12/2015","ON",43.797046,43.797046,"street_address","small","#f44","restaurant"
"14-5036",NA,"MUSE PAINTBAR","14-5036","Yes","245 COMMERCIAL STREET","PORTLAND","ME","617-775-2958","MUSE PAINTBAR","245 COMMERCIAL STREET","PORTLAND","CUMBERLAND","14-5036","V-M","05/27/2015","ON",43.9067518,43.9067518,"street_address","small","#f44","restaurant"
"14-5042",NA,"ELEVATION BURGER","14-5042","Yes","205 COMMERCIAL STREET","PORTLAND","ME","775-6800","ELEVATION BURGER","205 COMMERCIAL STREET","PORTLAND","CUMBERLAND","14-5042","M","07/21/2015","ON",43.8413899,43.8413899,"street_address","small","#f44","restaurant"
"14-5044",NA,"RED SEA RESTAURANT","14-5044","Yes","30 WASHINGTON AVENUE","PORTLAND","ME","939-7886","RED SEA RESTAURANT","30 WASHINGTON AVENUE","PORTLAND","CUMBERLAND","14-5044","M-V","08/03/2015","ON",43.657067,43.657067,"street_address","small","#f44","restaurant"
"14-5045",NA,"MISTO !","14-5045","Yes","436 US ROUTE ONE","KITTERY","ME","703-0606","MISTO !","436 US ROUTE ONE","KITTERY","YORK","14-5045","S-V-M","07/17/2015","ON",43.6828635,43.6828635,"street_address","small","#f44","restaurant"
"14-5046",NA,"MAPS CAFE","14-5046","Yes","64A MARKET STREET","PORTLAND","ME","347-9338","MAPS CAFE","64A MARKET STREET","PORTLAND","CUMBERLAND","14-5046","M-V","06/25/2015","ON",43.8006208,43.8006208,"locality","small","#f44","restaurant"
"14-5053",NA,"GOLDEN LOTUS","14-5053","Yes","511 CONGRESS STREET","PORTLAND","ME","603-531-3904","GOLDEN LOTUS","511 CONGRESS STREET","PORTLAND","CUMBERLAND","14-5053","S-V-M","09/03/2015","ON",43.7987102,43.7987102,"street_address","small","#f44","restaurant"
"14-5059",NA,"CAJUN LOBSTER, THE","14-5059","Yes","90 PEPPERELL ROAD","KITTERY POINT","ME","703-2397","CAJUN LOBSTER, THE","90 PEPPERELL ROAD","KITTERY POINT","YORK","14-5059","S-V-M","08/11/2015","ON",43.676827,43.676827,"street_address","small","#f44","restaurant"
"14-5061",NA,"TOPPINGS","14-5061","Yes","8 YORK STREET","KENNEBUNK","ME","985-5575","TOPPINGS","8 YORK STREET","KENNEBUNK","YORK","14-5061","M-V","09/08/2015","ON",43.9439718,43.9439718,"street_address","small","#f44","restaurant"
"14-5062",NA,"BEACHWOOD, THE","14-5062","Yes","29 WEST GRAND AVENUE","OLD ORCHARD BEACH","ME","934-2291","BEACHWOOD, THE","29 WEST GRAND AVENUE","OLD ORCHARD BEACH","YORK","14-5062","S-V-M","08/10/2015","ON",43.6556195,43.6556195,"street_address","small","#f44","restaurant"
"1416",NA,"CIRCLE K #7036","1416","Yes","1045 POST ROAD","WELLS","ME","207-646-7115","CIRCLE K #7036","1045 POST ROAD","WELLS","YORK","1416","V-M","07/15/2015","OFF",43.647279,43.647279,"street_address","small","#4f4","restaurant"
"1421",NA,"COUNTRY GOODS & GROCERIES","1421","Yes","566 NEWFIELD ROAD","SHAPLEIGH","ME","793-2945","COUNTRY GOODS & GROCERIES","566 NEWFIELD ROAD","SHAPLEIGH","YORK","1421","V-M","11/24/2015","OFF",43.654203,43.654203,"street_address","small","#4f4","restaurant"
"1424",NA,"MAINE BEER & BEVERAGE CO.","1424","Yes","28 MONUMENT SQUARE","PORTLAND","ME","207-228-2024","MAINE BEER & BEVERAGE CO.","28 MONUMENT SQUARE","PORTLAND","CUMBERLAND","1424","V-M","07/11/2015","OFF",43.7229269,43.7229269,"street_address","small","#4f4","restaurant"
"1425",NA,"QUALITY SHOP","1425","Yes","473 STEVENS AVENUE","PORTLAND","ME","774-6434","QUALITY SHOP","473 STEVENS AVENUE","PORTLAND","CUMBERLAND","1425","V-M","12/31/2014","OFF",43.655668,43.655668,"street_address","small","#4f4","restaurant"
"1435",NA,"SHAW'S #7558/491","1435","Yes","510 ALFRED STREET","BIDDEFORD","ME","207-283-8616","SHAW'S #7558/491","510 ALFRED STREET","BIDDEFORD","YORK","1435","M-V","04/07/2015","OFF",43.8501292,43.8501292,"street_address","small","#4f4","restaurant"
"1438",NA,"MARKET DAY, LTD.","1438","Yes","135 PORT ROAD","KENNEBUNK","ME","967-5577","MARKET DAY, LTD.","135 PORT ROAD","KENNEBUNK","YORK","1438","M-V","06/17/2015","OFF",43.656128,43.656128,"street_address","small","#4f4","restaurant"
"144",NA,"LOG CABIN QUICK SHOP","144","Yes","96 OCEAN PARK ROAD","SACO","ME","602-1989","LOG CABIN QUICK SHOP","96 OCEAN PARK ROAD","SACO","YORK","144","M-V","03/22/2015","OFF",43.8581131,43.8581131,"street_address","small","#4f4","restaurant"
"1440",NA,"7-ELEVEN #32531B","1440","Yes","704 CONGRESS STREET","PORTLAND","ME","207-871-1483","7-ELEVEN #32531B","704 CONGRESS STREET","PORTLAND","CUMBERLAND","1440","V-M","08/25/2015","OFF",43.6341638,43.6341638,"subpremise","small","#4f4","restaurant"
"1448",NA,"CALL'S SHOP'N SAVE","1448","Yes","200 MAPLE STREET   UNIT 3","CORNISH","ME","207-625-3900","CALL'S SHOP'N SAVE","200 MAPLE STREET	 UNIT 3","CORNISH","YORK","1448","V-M","11/01/2015","OFF",43.651395,43.651395,"street_address","small","#4f4","restaurant"
"1456",NA,"RITE AID #4979","1456","Yes","1036 POST ROAD","WELLS","ME","717-214-8543","RITE AID #4979","1036 POST ROAD","WELLS","YORK","1456","V-M","10/07/2015","OFF",43.6850819,43.6850819,"street_address","small","#4f4","restaurant"
"1518",NA,"FIRKINSNOCK VARIETY","1518","Yes","4 GOODWINS MILLS ROAD","LYMAN","ME","207-499-7119","FIRKINSNOCK VARIETY","4 GOODWINS MILLS ROAD","LYMAN","YORK","1518","M-V","09/19/2015","OFF",43.6227024,43.6227024,"street_address","small","#4f4","restaurant"
"1520",NA,"LAKESIDE MARKET","1520","Yes","411 SOKOKIS TRAIL","EAST WATERBORO","ME","247-8440","LAKESIDE MARKET","411 SOKOKIS TRAIL","EAST WATERBORO","YORK","1520","M-V","08/05/2015","OFF",43.6553,43.6553,"street_address","small","#4f4","restaurant"
"1521",NA,"POWDER HORN COUNTRY STORE","1521","Yes","48 CASCADE ROAD","OLD ORCHARD BEACH","ME","207-934-8500","POWDER HORN COUNTRY STORE","48 CASCADE ROAD","OLD ORCHARD BEACH","YORK","1521","V-M","05/19/2015","OFF",43.6533299,43.6533299,"street_address","small","#4f4","restaurant"
"1523",NA,"FRIENDLY DISCOUNT BEVERAGE","1523","Yes","1037 FOREST AVENUE","PORTLAND","ME","207-747-5754","FRIENDLY DISCOUNT BEVERAGE","1037 FOREST AVENUE","PORTLAND","CUMBERLAND","1523","V-M","01/21/2015","OFF",44.0533783,44.0533783,"street_address","small","#4f4","restaurant"
"1528",NA,"MY WINE-Y SISTER","1528","Yes","2 BEACH STREET","YORK BEACH","ME","207-361-6400","MY WINE-Y SISTER","2 BEACH STREET","YORK BEACH","YORK","1528","V-M","02/25/2015","OFF",43.668684,43.668684,"street_address","small","#4f4","restaurant"
"1536",NA,"TRADER JOE'S #519","1536","Yes","87 MARGINAL WAY","PORTLAND","ME","207-699-3799","TRADER JOE'S #519","87 MARGINAL WAY","PORTLAND","CUMBERLAND","1536","M-V","10/24/2015","OFF",43.6693135,43.6693135,"street_address","small","#4f4","restaurant"
"1545",NA,"NADEAU'S DELI & VARIETY, LLC","1545","Yes","484 ELM STREET","BIDDEFORD","ME","207-283-2944","NADEAU'S DELI & VARIETY, LLC","484 ELM STREET","BIDDEFORD","YORK","1545","M-V","05/04/2015","OFF",43.6558769,43.6558769,"street_address","small","#4f4","restaurant"
"1555",NA,"BIG APPLE FOOD STORE #1065, THE","1555","Yes","1120 PORTLAND ROAD","ARUNDEL","ME","207-743-9212","BIG APPLE FOOD STORE #1065, THE","1120 PORTLAND ROAD","ARUNDEL","YORK","1555","V-M","01/23/2015","OFF",43.6337893,43.6337893,"premise","small","#4f4","restaurant"
"1563",NA,"NEW MORNING NATURAL FOODS","1563","Yes","3 YORK STREET","KENNEBUNK","ME","207-985-6774","NEW MORNING NATURAL FOODS","3 YORK STREET","KENNEBUNK","YORK","1563","V-M","07/10/2015","OFF",43.675725,43.675725,"street_address","small","#4f4","restaurant"
"1565",NA,"CIRCLE K #7017","1565","Yes","270 RIVERSIDE STREET","PORTLAND","ME","207-774-9095","CIRCLE K #7017","270 RIVERSIDE STREET","PORTLAND","CUMBERLAND","1565","V-M","07/15/2015","OFF",43.6819961,43.6819961,"street_address","small","#4f4","restaurant"
"1569",NA,"COASTAL CONVENIENCE","1569","Yes","34A SACO AVENUE","OLD ORCHARD BEACH","ME","934-3434","COASTAL CONVENIENCE","34A SACO AVENUE","OLD ORCHARD BEACH","YORK","1569","V-M","02/08/2015","OFF",43.6383149,43.6383149,"street_address","small","#4f4","restaurant"
"1575",NA,"WALGREENS #12325","1575","Yes","616 FOREST AVENUE","PORTLAND","ME","207-761-9454","WALGREENS #12325","616 FOREST AVENUE","PORTLAND","CUMBERLAND","1575","V-M","02/28/2015","OFF",43.6576195,43.6576195,"street_address","small","#4f4","restaurant"
"1578",NA,"SEA STAR MARKET","1578","Yes","584 POOL ROAD","BIDDEFORD","ME","286-3022","SEA STAR MARKET","584 POOL ROAD","BIDDEFORD","YORK","1578","M-V","05/11/2015","OFF",43.6574583,43.6574583,"street_address","small","#4f4","restaurant"
"1589",NA,"WAL-MART SUPERCENTER #2153","1589","Yes","50 BOULDER WAY","BIDDEFORD","ME","207-286-9551","WAL-MART SUPERCENTER #2153","50 BOULDER WAY","BIDDEFORD","YORK","1589","V-M","05/29/2015","OFF",43.6538996,43.6538996,"street_address","small","#4f4","restaurant"
"16",NA,"CORNISH MARKET & VARIETY, LLC","16","Yes","124 MAIN STREET","CORNISH","ME","625-3333","CORNISH MARKET & VARIETY, LLC","124 MAIN STREET","CORNISH","YORK","16","V-M","10/29/2015","OFF",43.589337,43.589337,"street_address","small","#4f4","restaurant"
"1600",NA,"LOVELL VILLAGE STORE & RESTAURANT","1600","Yes","234 MAIN STREET","LOVELL","ME","207-925-1663","LOVELL VILLAGE STORE & RESTAURANT","234 MAIN STREET","LOVELL","OXFORD","1600","M-V","05/21/2015","OFF",43.6836255,43.6836255,"street_address","small","#4f4","restaurant"
"161",NA,"RITE AID #4112","161","Yes","15 SACO AVENUE","OLD ORCHARD BEACH","ME","717-214-8543","RITE AID #4112","15 SACO AVENUE","OLD ORCHARD BEACH","YORK","161","M-V","12/28/2015","OFF",43.6952816,43.6952816,"street_address","small","#4f4","restaurant"
"1610",NA,"BROWN SHIP SERVICES","1610","Yes","36 UNION WHARF","PORTLAND","ME","772-3796","BROWN SHIP SERVICES","36 UNION WHARF","PORTLAND","CUMBERLAND","1610","M-V","12/10/2014","OFF",43.8603802,43.8603802,"street_address","small","#4f4","restaurant"
"1611",NA,"JD'S PACKAGE STORE, INC.","1611","Yes","13 SOKOKIS TRAIL","EAST WATERBORO","ME","247-3991","JD'S PACKAGE STORE, INC.","13 SOKOKIS TRAIL","EAST WATERBORO","YORK","1611","V-M","11/09/2015","OFF",43.9629329,43.9629329,"street_address","small","#4f4","restaurant"
"1624",NA,"CIRCLE K #7053","1624","Yes","775 PORTLAND ROAD","SACO","ME","207-284-1323","CIRCLE K #7053","775 PORTLAND ROAD","SACO","YORK","1624","V-M","07/15/2015","OFF",43.801554,43.801554,"street_address","small","#4f4","restaurant"
"1628",NA,"BIG APPLE FOOD STORE #1118","1628","Yes","742 PORTLAND ROAD","SACO","ME","207-743-9212","BIG APPLE FOOD STORE #1118","742 PORTLAND ROAD","SACO","YORK","1628","V-M","05/28/2015","OFF",43.6336523,43.6336523,"street_address","small","#4f4","restaurant"
"1634",NA,"CARMINE'S","1634","Yes","164 VERANDA STREET","PORTLAND","ME","207-774-6899","CARMINE'S","164 VERANDA STREET","PORTLAND","CUMBERLAND","1634","M-V","03/31/2015","OFF",43.6572769,43.6572769,"street_address","small","#4f4","restaurant"
"1636",NA,"CIRCLE K #7047","1636","Yes","1227 MAIN STREET","SANFORD","ME","207-324-7475","CIRCLE K #7047","1227 MAIN STREET","SANFORD","YORK","1636","V-M","07/15/2015","OFF",43.942127,43.942127,"street_address","small","#4f4","restaurant"
"164",NA,"CUMBERLAND FARMS #5570","164","Yes","1136 FOREST AVENUE","PORTLAND","ME","207-797-9927","CUMBERLAND FARMS #5570","1136 FOREST AVENUE","PORTLAND","CUMBERLAND","164","V-M","09/30/2015","OFF",44.047944,44.047944,"street_address","small","#4f4","restaurant"
"1641",NA,"CUMBERLAND FARMS #5568","1641","Yes","10 ROUTE 236","SOUTH BERWICK","ME","207-384-6269","CUMBERLAND FARMS #5568","10 ROUTE 236","SOUTH BERWICK","YORK","1641","M-V","09/30/2015","OFF",43.6350898,43.6350898,"street_address","small","#4f4","restaurant"
"1646",NA,"GOOSE ROCKS BEACH GENERAL STORE","1646","Yes","3 DYKE ROAD","KENNEBUNKPORT","ME","967-2289","GOOSE ROCKS BEACH GENERAL STORE","3 DYKE ROAD","KENNEBUNKPORT","YORK","1646","M-V","06/24/2015","OFF",43.647279,43.647279,"street_address","small","#4f4","restaurant"
"1650",NA,"BIDDEFORD GETTY MART","1650","Yes","151 ELM STREET","BIDDEFORD","ME","207-282-7243","BIDDEFORD GETTY MART","151 ELM STREET","BIDDEFORD","YORK","1650","M-V","08/12/2015","OFF",43.678761,43.678761,"street_address","small","#4f4","restaurant"
"166",NA,"NASON'S CORNER STORE","166","Yes","1103 NEW COUNTY ROAD","DAYTON","ME","207-432-7221","NASON'S CORNER STORE","1103 NEW COUNTY ROAD","DAYTON","YORK","166","M-V","10/02/2015","OFF",43.889166,43.889166,"street_address","small","#4f4","restaurant"
"1661",NA,"BIER CELLAR","1661","Yes","299 FOREST AVENUE","PORTLAND","ME","200-6258","BIER CELLAR","299 FOREST AVENUE","PORTLAND","CUMBERLAND","1661","V-M","05/30/2015","OFF",43.5904145,43.5904145,"street_address","small","#4f4","restaurant"
"1662",NA,"PORT LOBSTER CO INC.","1662","Yes","122 OCEAN AVENUE","KENNEBUNKPORT","ME","967-2081","PORT LOBSTER CO INC.","122 OCEAN AVENUE","KENNEBUNKPORT","YORK","1662","M-V","01/15/2015","OFF",43.9022925,43.9022925,"street_address","small","#4f4","restaurant"
"1665",NA,"YARDARM VILLAGE INN","1665","Yes","406 SHORE ROAD","OGUNQUIT","ME","646-7006","YARDARM VILLAGE INN","406 SHORE ROAD","OGUNQUIT","YORK","1665","M-V","05/01/2015","OFF",43.6357194,43.6357194,"street_address","small","#4f4","restaurant"
"1668",NA,"FOUR CORNER STORE","1668","Yes","2 SEBAGO ROAD","HIRAM","ME","207-625-2148","FOUR CORNER STORE","2 SEBAGO ROAD","HIRAM","OXFORD","1668","V-M","06/02/2015","OFF",43.6569963,43.6569963,"street_address","small","#4f4","restaurant"
"167",NA,"SAMAIYRA MART","167","Yes","628 PEQUAKWET TRAIL","BROWNFIELD","ME","935-7030","SAMAIYRA MART","628 PEQUAKWET TRAIL","BROWNFIELD","OXFORD","167","V-M","10/21/2015","OFF",43.6767236,43.6767236,"street_address","small","#4f4","restaurant"
"1677",NA,"ROUTE 236 VARIETY & GRILL","1677","Yes","806 DOW HIGHWAY","ELIOT","ME","207-703-0225","ROUTE 236 VARIETY & GRILL","806 DOW HIGHWAY","ELIOT","YORK","1677","M-V","01/26/2015","OFF",43.6642269,43.6642269,"street_address","small","#4f4","restaurant"
"1678",NA,"CUMBERLAND FARMS #5567","1678","Yes","230 YORK STREET","YORK","ME","207-351-3087","CUMBERLAND FARMS #5567","230 YORK STREET","YORK","YORK","1678","M-V","09/30/2015","OFF",43.656919,43.656919,"street_address","small","#4f4","restaurant"
"1681",NA,"BENNETT'S STORE","1681","Yes","200 SEA ROAD","KENNEBUNK","ME","207-967-5401","BENNETT'S STORE","200 SEA ROAD","KENNEBUNK","YORK","1681","V-M","04/29/2015","OFF",43.91169,43.91169,"street_address","small","#4f4","restaurant"
"1687",NA,"RITE AID PHARMACY #3307","1687","Yes","400 US ROUTE ONE","YORK","ME","717-214-8543","RITE AID PHARMACY #3307","400 US ROUTE ONE","YORK","YORK","1687","M-V","09/09/2015","OFF",43.6195088,43.6195088,"street_address","small","#4f4","restaurant"
"1696",NA,"SPILL THE WINE","1696","Yes","6A  EAST GRAND AVENUE","OLD ORCHARD BEACH","ME","207-934-9100","SPILL THE WINE","6A  EAST GRAND AVENUE","OLD ORCHARD BEACH","YORK","1696","V-M","07/12/2015","OFF",43.8124327,43.8124327,"street_address","small","#4f4","restaurant"
"1701",NA,"HAROLD'S CUT RATE","1701","Yes","11 EAST GRAND AVENUE","OLD ORCHARD BEACH","ME","934-4382","HAROLD'S CUT RATE","11 EAST GRAND AVENUE","OLD ORCHARD BEACH","YORK","1701","V-M","03/26/2015","OFF",43.639731,43.639731,"street_address","small","#4f4","restaurant"
"1718",NA,"PERKINS & PERKINS","1718","Yes","478 MAIN STREET","OGUNQUIT","ME","646-0288","PERKINS & PERKINS","478 MAIN STREET","OGUNQUIT","YORK","1718","M-V","05/22/2015","OFF",43.6528727,43.6528727,"street_address","small","#4f4","restaurant"
"1722",NA,"WAVES OCEANFRONT RESORT","1722","Yes","77 WEST GRAND AVENUE","OLD ORCHARD BEACH","ME","207-934-4949","WAVES OCEANFRONT RESORT","77 WEST GRAND AVENUE","OLD ORCHARD BEACH","YORK","1722","V-M","05/15/2015","OFF",43.6356129,43.6356129,"street_address","small","#4f4","restaurant"
"1727",NA,"BEACHSIDE VARIETY","1727","Yes","124 WEST GRAND AVENUE","OLD ORCHARD BEACH","ME","934-3017","BEACHSIDE VARIETY","124 WEST GRAND AVENUE","OLD ORCHARD BEACH","YORK","1727","V-M","06/12/2015","OFF",43.6493516,43.6493516,"street_address","small","#4f4","restaurant"
"1734",NA,"ONE EARTH NATURAL FOOD STORE","1734","Yes","191 EMERY MILLS ROAD","SHAPLEIGH","ME","636-2500","ONE EARTH NATURAL FOOD STORE","191 EMERY MILLS ROAD","SHAPLEIGH","YORK","1734","M-V","09/20/2015","OFF",43.6566615,43.6566615,"street_address","small","#4f4","restaurant"
"1735",NA,"CUMBERLAND FARMS #5584","1735","Yes","42  SCHOOL STREET","BERWICK","ME","207-698-1466","CUMBERLAND FARMS #5584","42  SCHOOL STREET","BERWICK","YORK","1735","V-M","09/30/2015","OFF",43.6544364,43.6544364,"street_address","small","#4f4","restaurant"
"1746",NA,"DYER'S VARIETY STORE","1746","Yes","45 PORTLAND ST","PORTLAND","ME","207-772-1360","DYER'S VARIETY STORE","45 PORTLAND ST","PORTLAND","CUMBERLAND","1746","V-M","07/25/2015","OFF",43.6354475,43.6354475,"street_address","small","#4f4","restaurant"
"175",NA,"CVS / PHARMACY #143","175","Yes","384 ELM STREET","BIDDEFORD","ME","207-282-3187","CVS / PHARMACY #143","384 ELM STREET","BIDDEFORD","YORK","175","M-V","10/21/2015","OFF",43.6373015,43.6373015,"street_address","small","#4f4","restaurant"
"1752",NA,"DIAMOND COVE GENERAL STORE","1752","Yes","255 DIAMOND AVENUE - GREAT DIAMOND ISLAND","PORTLAND","ME","207-766-3000","DIAMOND COVE GENERAL STORE","255 DIAMOND AVENUE - GREAT DIAMOND
ISLAND","PORTLAND","CUMBERLAND","1752","M-V","05/23/2015","OFF",43.856435,43.856435,"street_address","small","#4f4","restaurant"
"1754",NA,"CVS - PHARMACY #523","1754","Yes","797 MAIN STREET, SUITE D","SANFORD","ME","207-324-3110","CVS - PHARMACY #523","797 MAIN STREET, SUITE D","SANFORD","YORK","1754","V-M","01/10/2015","OFF",43.573254,43.573254,"street_address","small","#4f4","restaurant"
"1756",NA,"FRIENDSHIP STORE, INC.","1756","Yes","57 EAST GRAND AVENUE","OLD ORCHARD BEACH","ME","934-1188","FRIENDSHIP STORE, INC.","57 EAST GRAND AVENUE","OLD ORCHARD BEACH","YORK","1756","V-M","07/14/2015","OFF",43.6249279,43.6249279,"street_address","small","#4f4","restaurant"
"1758",NA,"BROWNE TRADING GOURMET MARKET","1758","Yes","262 COMMERCIAL  STREET","PORTLAND","ME","775-7560","BROWNE TRADING GOURMET MARKET","262 COMMERCIAL  STREET","PORTLAND","CUMBERLAND","1758","M-V","05/22/2015","OFF",43.655564,43.655564,"street_address","small","#4f4","restaurant"
"1759",NA,"LOW'S ALFRED","1759","Yes","70 SANFORD ROAD","ALFRED","ME","459-7400","LOW'S ALFRED","70 SANFORD ROAD","ALFRED","YORK","1759","M-V","12/26/2014","OFF",43.6513255,43.6513255,"street_address","small","#4f4","restaurant"
"1768",NA,"WALGREENS #11886","1768","Yes","127 MARGINAL WAY","PORTLAND","ME","207-771-5631","WALGREENS #11886","127 MARGINAL WAY","PORTLAND","CUMBERLAND","1768","V-M","03/30/2015","OFF",43.8027749,43.8027749,"street_address","small","#4f4","restaurant"
"1769",NA,"BIDDEFORD SMOKE SHOP","1769","Yes","299 MAIN STREET   SUITE 3","BIDDEFORD","ME","650-8932","BIDDEFORD SMOKE SHOP","299 MAIN STREET	SUITE 3","BIDDEFORD","YORK","1769","M-V","02/27/2015","OFF",43.732778,43.732778,"street_address","small","#4f4","restaurant"
"177",NA,"THREE D'S VARIETY STORE","177","Yes","885 BRIGHTON AVENUE","PORTLAND","ME","207-619-7220","THREE D'S VARIETY STORE","885 BRIGHTON AVENUE","PORTLAND","CUMBERLAND","177","V-M","02/07/2015","OFF",43.9113296,43.9113296,"subpremise","small","#4f4","restaurant"
"1772",NA,"CUMBERLAND FARMS #5566","1772","Yes","982 MAIN STREET","SANFORD","ME","207-324-7180","CUMBERLAND FARMS #5566","982 MAIN STREET","SANFORD","YORK","1772","V-M","09/30/2015","OFF",43.9490496,43.9490496,"street_address","small","#4f4","restaurant"
"1775",NA,"DOWN EAST WINE IMPORTS","1775","Yes","13 WESTERN AVENUE","KENNEBUNK","ME","207-967-9171","DOWN EAST WINE IMPORTS","13 WESTERN AVENUE","KENNEBUNK","YORK","1775","V","06/03/2015","OFF",43.9663388,43.9663388,"street_address","small","#4f4","restaurant"
"1787",NA,"CUMBERLAND FARMS #5616","1787","Yes","564 ALFRED STREET","BIDDEFORD","ME","207-283-3410","CUMBERLAND FARMS #5616","564 ALFRED STREET","BIDDEFORD","YORK","1787","V-M","11/18/2015","OFF",43.854326,43.854326,"street_address","small","#4f4","restaurant"
"1788",NA,"TAMI LYN'S PLACE","1788","Yes","126 W. GRAND","OLD ORCHARD BEACH","ME","207-934-4292","TAMI LYN'S PLACE","126 W. GRAND","OLD ORCHARD BEACH","YORK","1788","V-M","08/21/2015","OFF",43.65308,43.65308,"street_address","small","#4f4","restaurant"
"1803",NA,"CUMBERLAND FARMS #5576","1803","Yes","34 MAIN STREET","NORTH BERWICK","ME","207-676-8508","CUMBERLAND FARMS #5576","34 MAIN STREET","NORTH BERWICK","YORK","1803","M-V","09/30/2015","OFF",43.8340593,43.8340593,"street_address","small","#4f4","restaurant"
"181",NA,"FRESH APPROACH II","181","Yes","155 BRACKETT STREET","PORTLAND","ME","207-774-7250","FRESH APPROACH II","155 BRACKETT STREET","PORTLAND","CUMBERLAND","181","M-V","02/12/2015","OFF",43.840064,43.840064,"subpremise","small","#4f4","restaurant"
"1817",NA,"MAINE-LY DRIZZLE, LLC","1817","Yes","2 OCEAN AVENUE","KENNEBUNKPORT","ME","207-967-2515","MAINE-LY DRIZZLE, LLC","2 OCEAN AVENUE","KENNEBUNKPORT","YORK","1817","V-M","02/11/2015","OFF",43.6536985,43.6536985,"street_address","small","#4f4","restaurant"
"1818",NA,"MAINE'S PANTRY","1818","Yes","111 COMMERCIAL STREET","PORTLAND","ME","207-228-2028","MAINE'S PANTRY","111 COMMERCIAL STREET","PORTLAND","CUMBERLAND","1818","V-M","06/26/2015","OFF",43.916634,43.916634,"street_address","small","#4f4","restaurant"
"1824",NA,"S S SUPER SUBS","1824","Yes","69 JEFFERSON STREET","BIDDEFORD","ME","207-284-5636","S S SUPER SUBS","69 JEFFERSON STREET","BIDDEFORD","YORK","1824","M-V","01/07/2015","OFF",43.917265,43.917265,"street_address","small","#4f4","restaurant"
"183",NA,"OLD PORT WINE MERCHANTS","183","Yes","223 COMMERCIAL STREET","PORTLAND","ME","772-9463","OLD PORT WINE MERCHANTS","223 COMMERCIAL STREET","PORTLAND","CUMBERLAND","183","V","05/25/2015","OFF",43.798262,43.798262,"street_address","small","#4f4","restaurant"
"1847",NA,"BIG APPLE FOOD STORE #1067","1847","Yes","6 WESTERN AVENUE","KENNEBUNKPORT","ME","743-9212","BIG APPLE FOOD STORE #1067","6 WESTERN AVENUE","KENNEBUNKPORT","YORK","1847","M-V","05/23/2015","OFF",43.77055,43.77055,"street_address","small","#4f4","restaurant"
"1850",NA,"BIG APPLE FOOD STORE #1114","1850","Yes","1110 CAPE ROAD","HOLLIS","ME","743-9212","BIG APPLE FOOD STORE #1114","1110 CAPE ROAD","HOLLIS","YORK","1850","V-M","04/30/2015","OFF",43.6624357,43.6624357,"street_address","small","#4f4","restaurant"
"1857",NA,"7-ELEVEN #32540 A","1857","Yes","66 ALFRED STREET","BIDDEFORD","ME","207-282-4498","7-ELEVEN #32540 A","66 ALFRED STREET","BIDDEFORD","YORK","1857","M-V","06/13/2015","OFF",43.6630513,43.6630513,"street_address","small","#4f4","restaurant"
"1866",NA,"CUMBERLAND FARMS #5613","1866","Yes","512 WOODSFORD STREET","PORTLAND","ME","207-773-7792","CUMBERLAND FARMS #5613","512 WOODSFORD STREET","PORTLAND","CUMBERLAND","1866","V-M","11/09/2015","OFF",43.6850819,43.6850819,"street_address","small","#4f4","restaurant"
"1905",NA,"CVS PHARMACY #804","1905","Yes","1406 CONGRESS ST. - WEST GATE S/C","PORTLAND","ME","207-773-5511","CVS PHARMACY #804","1406 CONGRESS ST. - WEST GATE S/C","PORTLAND","CUMBERLAND","1905","V-M","06/27/2015","OFF",43.881349,43.881349,"street_address","small","#4f4","restaurant"
"1907",NA,"ELIOT MEAT MARKET","1907","Yes","177 MOSES GERRISH FARMS RD.","ELIOT","ME","207-439-2983","ELIOT MEAT MARKET","177 MOSES GERRISH FARMS RD.","ELIOT","YORK","1907","M-V","05/08/2015","OFF",43.881349,43.881349,"street_address","small","#4f4","restaurant"
"1935",NA,"CITY BEVERAGE","1935","Yes","1 EXCHANGE STREET","PORTLAND","ME","233-1607","CITY BEVERAGE","1 EXCHANGE STREET","PORTLAND","CUMBERLAND","1935","V-M","07/13/2015","OFF",43.7400448,43.7400448,"street_address","small","#4f4","restaurant"
"1949",NA,"PLUMMER'S SUPERMARKET","1949","Yes","235 PARKER FARM ROAD","BUXTON","ME","727-3126","PLUMMER'S SUPERMARKET","235 PARKER FARM ROAD","BUXTON","YORK","1949","V-M","12/31/2014","OFF",43.7027404,43.7027404,"street_address","small","#4f4","restaurant"
"1955",NA,"RITE AID #3298","1955","Yes","713 CONGRESS STREET","PORTLAND","ME","717-214-8543","RITE AID #3298","713 CONGRESS STREET","PORTLAND","CUMBERLAND","1955","M-V","05/26/2015","OFF",43.907887,43.907887,"street_address","small","#4f4","restaurant"
"1960",NA,"LANDING STORE, THE","1960","Yes","157 SUMMER STREET","KENNEBUNK","ME","207-985-2448","LANDING STORE, THE","157 SUMMER STREET","KENNEBUNK","YORK","1960","V-M","05/15/2015","OFF",43.8358787,43.8358787,"street_address","small","#4f4","restaurant"
"1968",NA,"CUMBERLAND FARMS #5577","1968","Yes","1547 POST ROAD","WELLS","ME","207-641-8645","CUMBERLAND FARMS #5577","1547 POST ROAD","WELLS","YORK","1968","V-M","09/30/2015","OFF",43.6774009,43.6774009,"street_address","small","#4f4","restaurant"
"1976",NA,"RITE AID #3277","1976","Yes","290 CONGRESS STREET EAST","PORTLAND","ME","717-214-8543","RITE AID #3277","290 CONGRESS STREET EAST","PORTLAND","CUMBERLAND","1976","V-M","05/26/2015","OFF",43.7932465,43.7932465,"street_address","small","#4f4","restaurant"
"1981",NA,"RITE AID #3286","1981","Yes","335 ALFRED STREET","BIDDEFORD","ME","717-214-8543","RITE AID #3286","335 ALFRED STREET","BIDDEFORD","YORK","1981","M-V","05/27/2015","OFF",43.6559105,43.6559105,"street_address","small","#4f4","restaurant"
"1987",NA,"PINE TREE COUNTRY STORE","1987","Yes","435 US ROUTE ONE, UNIT 6","KITTERY","ME","207-439-2212","PINE TREE COUNTRY STORE","435 US ROUTE ONE, UNIT 6","KITTERY","YORK","1987","V-M","06/07/2015","OFF",43.6555231,43.6555231,"street_address","small","#4f4","restaurant"
"1988",NA,"AMATO'S  BIDDEFORD","1988","Yes","458 ALFRED STREET","BIDDEFORD","ME","286-2934","AMATO'S  BIDDEFORD","458 ALFRED STREET","BIDDEFORD","YORK","1988","V-M","07/19/2015","OFF",43.6396332,43.6396332,"route","small","#4f4","restaurant"
"199",NA,"BEACHWAY GENERAL STORE","199","Yes","153 BEACH STREET","SACO","ME","207-282-0202","BEACHWAY GENERAL STORE","153 BEACH STREET","SACO","YORK","199","V-M","12/28/2014","OFF",43.668764,43.668764,"street_address","small","#4f4","restaurant"
"1995",NA,"BOSTON CONNECTION","1995","Yes","170 ELM STREET","BIDDEFORD","ME","207-283-3354","BOSTON CONNECTION","170 ELM STREET","BIDDEFORD","YORK","1995","V-M","05/11/2015","OFF",43.661023,43.661023,"street_address","small","#4f4","restaurant"
"1997",NA,"WELLS XTRA MART","1997","Yes","718 POST ROAD","WELLS","ME","646-9588","WELLS XTRA MART","718 POST ROAD","WELLS","YORK","1997","V-M","02/01/2015","OFF",43.608511,43.608511,"street_address","small","#4f4","restaurant"
"2006",NA,"WELLS CLIPPER MART","2006","Yes","329 POST ROAD","WELLS","ME","207-641-2337","WELLS CLIPPER MART","329 POST ROAD","WELLS","YORK","2006","M-V","11/03/2015","OFF",43.9091955,43.9091955,"street_address","small","#4f4","restaurant"
"2011",NA,"STATION HOUSE CONVENIENCE STORE","2011","Yes","415 HOLLIS ROAD","HOLLIS CENTER","ME","207-651-6291","STATION HOUSE CONVENIENCE STORE","415 HOLLIS ROAD","HOLLIS CENTER","YORK","2011","V-M","08/07/2015","OFF",43.601188,43.601188,"street_address","small","#4f4","restaurant"
"2013",NA,"RITE AID #3309","2013","Yes","37 PORTLAND ROAD","KENNEBUNK","ME","717-214-8543","RITE AID #3309","37 PORTLAND ROAD","KENNEBUNK","YORK","2013","M-V","05/28/2015","OFF",43.6764529,43.6764529,"street_address","small","#4f4","restaurant"
"2024",NA,"HANNAFORD SUPERMARKET & PHARMACY #8403","2024","Yes","65 PORTLAND ROAD","KENNEBUNK","ME","207-985-9135","HANNAFORD SUPERMARKET & PHARMACY #8403","65 PORTLAND ROAD","KENNEBUNK","YORK","2024","V-M","04/27/2015","OFF",43.9631188,43.9631188,"street_address","small","#4f4","restaurant"
"2037",NA,"PAUL'S VARIETY","2037","Yes","80 ALFRED STREET","BIDDEFORD","ME","207-282-6821","PAUL'S VARIETY","80 ALFRED STREET","BIDDEFORD","YORK","2037","M-V","08/05/2015","OFF",43.7464444,43.7464444,"route","small","#4f4","restaurant"
"2038",NA,"MADDEN BEVERAGE","2038","Yes","335 NORTH STREET","SACO","ME","282-8720","MADDEN BEVERAGE","335 NORTH STREET","SACO","YORK","2038","M-V","12/16/2014","OFF",43.91639,43.91639,"street_address","small","#4f4","restaurant"
"204",NA,"JOE'S SMOKE SHOP","204","Yes","665 CONGRESS STREET","PORTLAND","ME","773-3656","JOE'S SMOKE SHOP","665 CONGRESS STREET","PORTLAND","CUMBERLAND","204","M-V","02/01/2015","OFF",43.6773979,43.6773979,"street_address","small","#4f4","restaurant"
"2040",NA,"LANDRY'S SHOP'N SAVE","2040","Yes","2 CASCADE ROAD","OLD ORCHARD BEACH","ME","207-934-4311","LANDRY'S SHOP'N SAVE","2 CASCADE ROAD","OLD ORCHARD BEACH","YORK","2040","M-V","07/20/2015","OFF",43.5420405,43.5420405,"street_address","small","#4f4","restaurant"
"2074",NA,"CASCO VARIETY","2074","Yes","96 COMMERCIAL ST","PORTLAND","ME","773-4299","CASCO VARIETY","96 COMMERCIAL ST","PORTLAND","CUMBERLAND","2074","M-V","07/05/2015","OFF",43.6338143,43.6338143,"premise","small","#4f4","restaurant"
"2075",NA,"CIRCLE K #7054","2075","Yes","59 PORTLAND ROAD","KENNEBUNK","ME","207-985-2978","CIRCLE K #7054","59 PORTLAND ROAD","KENNEBUNK","YORK","2075","V-M","07/15/2015","OFF",43.5918798,43.5918798,"street_address","small","#4f4","restaurant"
"2076",NA,"HITIDE GIFTS AND GOURMET, LLC","2076","Yes","15B SHORE ROAD","OGUNQUIT","ME","207-646-4100","HITIDE GIFTS AND GOURMET, LLC","15B SHORE ROAD","OGUNQUIT","YORK","2076","V-M","04/09/2015","OFF",43.6592503,43.6592503,"street_address","small","#4f4","restaurant"
"208",NA,"SCRUBADUB AUTO WASH CENTERS, INC.","208","Yes","1185 FOREST AVE","PORTLAND","ME","508-650-1155","SCRUBADUB AUTO WASH CENTERS, INC.","1185 FOREST AVE","PORTLAND","CUMBERLAND","208","V-M","07/28/2015","OFF",43.648956,43.648956,"street_address","small","#4f4","restaurant"
"2082",NA,"MILK ROOM, THE","2082","Yes","934 MAIN STREET","SOUTH WATERBORO","ME","247-4849","MILK ROOM, THE","934 MAIN STREET","SOUTH WATERBORO","YORK","2082","V-M","11/07/2015","OFF",43.6568782,43.6568782,"street_address","small","#4f4","restaurant"
"2084",NA,"VILLAGE VARIETY","2084","Yes","27 FEDERAL ROAD","PARSONSFIELD","ME","625-8417","VILLAGE VARIETY","27 FEDERAL ROAD","PARSONSFIELD","YORK","2084","V-M","07/31/2015","OFF",43.9637303,43.9637303,"street_address","small","#4f4","restaurant"
"2090",NA,"ARUNDEL MARKET & DELI","2090","Yes","1144 PORTLAND ROAD","ARUNDEL","ME","985-2642","ARUNDEL MARKET & DELI","1144 PORTLAND ROAD","ARUNDEL","YORK","2090","M-V","05/27/2015","OFF",43.6480729,43.6480729,"street_address","small","#4f4","restaurant"
"2102",NA,"CVS PHARMACY #374","2102","Yes","449 FOREST AVENUE","PORTLAND","ME","207-772-1920","CVS PHARMACY #374","449 FOREST AVENUE","PORTLAND","CUMBERLAND","2102","V-M","06/27/2015","OFF",43.9698473,43.9698473,"street_address","small","#4f4","restaurant"
"2109",NA,"GOLDTHWAITE'S STORE","2109","Yes","3 LESTER B. ORCUTT BLVD","BIDDEFORD POOL","ME","207-284-5000","GOLDTHWAITE'S STORE","3 LESTER B. ORCUTT BLVD","BIDDEFORD POOL","YORK","2109","M-V","05/04/2015","OFF",43.6591442,43.6591442,"street_address","small","#4f4","restaurant"
"211",NA,"HAWKS NEST DELI & MARKET, THE","211","Yes","586 QUARRY ROAD","WELLS","ME","207-216-9288","HAWKS NEST DELI & MARKET, THE","586 QUARRY ROAD","WELLS","YORK","211","V-M","09/30/2015","OFF",43.8894605,43.8894605,"street_address","small","#4f4","restaurant"
"2111",NA,"MAINE STREET DEPOT","2111","Yes","845 MAIN STREET","SANFORD","ME","850-1022","MAINE STREET DEPOT","845 MAIN STREET","SANFORD","YORK","2111","V-M","03/04/2015","OFF",44.0540967,44.0540967,"street_address","small","#4f4","restaurant"
"2117",NA,"GOODWINS MILLS GENERAL STORE","2117","Yes","480 GOODWINS MILLS ROAD","LYMAN","ME","651-6291","GOODWINS MILLS GENERAL STORE","480 GOODWINS MILLS ROAD","LYMAN","YORK","2117","V-M","06/04/2015","OFF",43.9601307,43.9601307,"street_address","small","#4f4","restaurant"
"2133",NA,"SAVE-A-LOT","2133","Yes","268 SAINT JOHN STREET","PORTLAND","ME","772-0622","SAVE-A-LOT","268 SAINT JOHN STREET","PORTLAND","CUMBERLAND","2133","V-M","10/21/2015","OFF",43.704103,43.704103,"subpremise","small","#4f4","restaurant"
"214",NA,"RITE AID  #4122","214","Yes","365 ALLEN AVENUE","PORTLAND","ME","717-214-8543","RITE AID	#4122","365 ALLEN AVENUE","PORTLAND","CUMBERLAND","214","M-V","09/27/2015","OFF",43.546239,43.546239,"street_address","small","#4f4","restaurant"
"2149",NA,"SHAW'S # 7541/467","2149","Yes","91 AUBURN STREET","PORTLAND","ME","207-797-4304","SHAW'S # 7541/467","91 AUBURN STREET","PORTLAND","CUMBERLAND","2149","M-V","04/07/2015","OFF",43.563696,43.563696,"locality","small","#4f4","restaurant"
"2150",NA,"HOLLIS LIL'MART #01009","2150","Yes","6 PLAINS ROAD","HOLLIS","ME","207-727-6715","HOLLIS LIL'MART #01009","6 PLAINS ROAD","HOLLIS","YORK","2150","V-M","12/27/2015","OFF",43.653617,43.653617,"street_address","small","#4f4","restaurant"
"216",NA,"EXPRESS MART","216","Yes","754 CONGRESS STREET","PORTLAND","ME","207-772-0560","EXPRESS MART","754 CONGRESS STREET","PORTLAND","CUMBERLAND","216","M-V","10/30/2015","OFF",43.930043,43.930043,"street_address","small","#4f4","restaurant"
"2175",NA,"RITE AID  #4150","2175","Yes","464 MAIN STREET","SPRINGVALE","ME","717-214-8543","RITE AID	#4150","464 MAIN STREET","SPRINGVALE","YORK","2175","M-V","09/07/2015","OFF",44.0202868,44.0202868,"street_address","small","#4f4","restaurant"
"2178",NA,"CORNER GENERAL STORE, LLC, THE","2178","Yes","115 MIDDLE STREET","PORTLAND","ME","253-5280","CORNER GENERAL STORE, LLC, THE","115 MIDDLE STREET","PORTLAND","CUMBERLAND","2178","V-M","11/25/2014","OFF",43.5437713,43.5437713,"street_address","small","#4f4","restaurant"
"2194",NA,"SLEEPERS SUPERMARKET LIMINGTON","2194","Yes","183 OSSIPEE TRAIL","LIMINGTON","ME","207-637-2701","SLEEPERS SUPERMARKET LIMINGTON","183 OSSIPEE TRAIL","LIMINGTON","YORK","2194","V-M","08/30/2015","OFF",43.6528154,43.6528154,"street_address","small","#4f4","restaurant"
"2195",NA,"7-ELEVEN #32542C","2195","Yes","217 SACO AVENUE","OLD ORCHARD BEACH","ME","207-934-7500","7-ELEVEN #32542C","217 SACO AVENUE","OLD ORCHARD BEACH","YORK","2195","M-V","07/05/2015","OFF",43.651743,43.651743,"street_address","small","#4f4","restaurant"
"2196",NA,"MERRILL'S COUNTRY STORE","2196","Yes","907 SOKOKIS TRAIL","NORTH WATERBORO","ME","247-5356","MERRILL'S COUNTRY STORE","907 SOKOKIS TRAIL","NORTH WATERBORO","YORK","2196","V-M","12/31/2014","OFF",43.962442,43.962442,"street_address","small","#4f4","restaurant"
"22",NA,"BUXTON MINI MART","22","Yes","10 TURKEY LANE","BUXTON","ME","929-8877","BUXTON MINI MART","10 TURKEY LANE","BUXTON","YORK","22","M-V","07/12/2015","OFF",43.6798157,43.6798157,"street_address","small","#4f4","restaurant"
"2200",NA,"POTVIN'S MARKET","2200","Yes","211 SACO AVENUE","OLD ORCHARD BEACH","ME","934-2071","POTVIN'S MARKET","211 SACO AVENUE","OLD ORCHARD BEACH","YORK","2200","V-M","12/31/2014","OFF",43.6862949,43.6862949,"street_address","small","#4f4","restaurant"
"221",NA,"ALLARD'S MARKET & DELI","221","Yes","68 ELM STREET","NORTH BERWICK","ME","207-676-3373","ALLARD'S MARKET & DELI","68 ELM STREET","NORTH BERWICK","YORK","221","V-M","07/16/2015","OFF",43.6547825,43.6547825,"street_address","small","#4f4","restaurant"
"2213",NA,"CUMBERLAND FARMS #5604","2213","Yes","801 WASHINGTON AVENUE","PORTLAND","ME","207-780-8032","CUMBERLAND FARMS #5604","801 WASHINGTON AVENUE","PORTLAND","CUMBERLAND","2213","M-V","09/30/2015","OFF",43.857823,43.857823,"street_address","small","#4f4","restaurant"
"2228",NA,"SHAW'S # 7543/469","2228","Yes","1364 CONGRESS STREET","PORTLAND","ME","207-774-7661","SHAW'S # 7543/469","1364 CONGRESS STREET","PORTLAND","CUMBERLAND","2228","V-M","04/07/2015","OFF",43.6351676,43.6351676,"street_address","small","#4f4","restaurant"
"2231",NA,"MAINE YACHT CENTER","2231","Yes","100 KENSINGTON STREET","PORTLAND","ME","842-9000","MAINE YACHT CENTER","100 KENSINGTON STREET","PORTLAND","CUMBERLAND","2231","V-M","05/04/2015","OFF",43.7021683,43.7021683,"street_address","small","#4f4","restaurant"
"2233",NA,"LUNCH BOX, THE","2233","Yes","135 AGAMENTICUS ROAD","SOUTH BERWICK","ME","207-384-2631","LUNCH BOX, THE","135 AGAMENTICUS ROAD","SOUTH BERWICK","YORK","2233","V-M","10/20/2015","OFF",43.6559109,43.6559109,"street_address","small","#4f4","restaurant"
"2241",NA,"SANFORD LIL'MART #01016","2241","Yes","1439 MAIN STREET","SANFORD","ME","508-762-3724","SANFORD LIL'MART #01016","1439 MAIN STREET","SANFORD","YORK","2241","M-V","10/19/2015","OFF",43.6360694,43.6360694,"street_address","small","#4f4","restaurant"
"2246",NA,"C & E WICKED GOOD STORE & RESTAURANT","2246","Yes","360 MAIN STREET","LOVELL","ME","207-925-3090","C & E WICKED GOOD STORE & RESTAURANT","360 MAIN STREET","LOVELL","OXFORD","2246","V-M","11/20/2014","OFF",43.652708,43.652708,"street_address","small","#4f4","restaurant"
"2256",NA,"ACTON TRADING POST, THE","2256","Yes","57 ROUTE 109","ACTON","ME","636-9907","ACTON TRADING POST, THE","57 ROUTE 109","ACTON","YORK","2256","V-M","07/18/2015","OFF",43.601188,43.601188,"street_address","small","#4f4","restaurant"
"2258",NA,"PORTLAND XTRA MART","2258","Yes","865 BRIGHTON AVENUE","PORTLAND","ME","775-2987","PORTLAND XTRA MART","865 BRIGHTON AVENUE","PORTLAND","CUMBERLAND","2258","V-M","02/08/2015","OFF",43.655364,43.655364,"street_address","small","#4f4","restaurant"
"226",NA,"CONGRESS ST VARIETY","226","Yes","935 CONGRESS STREET","PORTLAND","ME","756-0093","CONGRESS ST VARIETY","935 CONGRESS STREET","PORTLAND","CUMBERLAND","226","V-M","02/11/2015","OFF",43.6805423,43.6805423,"street_address","small","#4f4","restaurant"
"2260",NA,"SHAW'S # 7626/487","2260","Yes","4 SCAMMON ST., SUITE 10","SACO","ME","207-284-9666","SHAW'S # 7626/487","4 SCAMMON ST., SUITE 10","SACO","YORK","2260","V-M","04/07/2015","OFF",43.986599,43.986599,"street_address","small","#4f4","restaurant"
"2262",NA,"RED ROCKET SACO","2262","Yes","70 ELM STREET","SACO","ME","934-5444","RED ROCKET SACO","70 ELM STREET","SACO","YORK","2262","V-M","01/01/2015","OFF",43.5642541,43.5642541,"street_address","small","#4f4","restaurant"
"2268",NA,"BJ'S WHOLESALE CLUB #29","2268","Yes","513-515 WARREN AVENUE","PORTLAND","ME","207-797-8400","BJ'S WHOLESALE CLUB #29","513-515 WARREN AVENUE","PORTLAND","CUMBERLAND","2268","M-V","09/29/2015","OFF",43.6569663,43.6569663,"street_address","small","#4f4","restaurant"
"2277",NA,"SHAW'S # 7560/494","2277","Yes","1364 MAIN STREET","SANFORD","ME","207-490-5309","SHAW'S # 7560/494","1364 MAIN STREET","SANFORD","YORK","2277","M-V","04/07/2015","OFF",43.6666014,43.6666014,"street_address","small","#4f4","restaurant"
"2279",NA,"MIKE'S FISH MARKET","2279","Yes","1150 POST ROAD","WELLS","ME","207-646-5998","MIKE'S FISH MARKET","1150 POST ROAD","WELLS","YORK","2279","V-M","06/05/2015","OFF",43.642574,43.642574,"street_address","small","#4f4","restaurant"
"229",NA,"CLARK STREET DELI & MARKET","229","Yes","81 CLARK STREET","PORTLAND","ME","207-774-1996","CLARK STREET DELI & MARKET","81 CLARK STREET","PORTLAND","CUMBERLAND","229","V-M","12/19/2014","OFF",43.7523245,43.7523245,"premise","small","#4f4","restaurant"
"2298",NA,"RED ROCKET","2298","Yes","1569 FOREST AVENUE","PORTLAND","ME","409-8444","RED ROCKET","1569 FOREST AVENUE","PORTLAND","CUMBERLAND","2298","V-M","01/01/2015","OFF",43.915617,43.915617,"street_address","small","#4f4","restaurant"
"2304",NA,"HANNAFORD #8226","2304","Yes","24 PORTLAND ROAD","BUXTON","ME","929-3100","HANNAFORD #8226","24 PORTLAND ROAD","BUXTON","YORK","2304","V-M","12/02/2015","OFF",43.911532,43.911532,"route","small","#4f4","restaurant"
"2314",NA,"J.D. VARIETY","2314","Yes","CORNER OF 202 AND 22","BUXTON","ME","929-8000","J.D. VARIETY","CORNER OF 202 AND 22","BUXTON","YORK","2314","V-M","01/16/2015","OFF",43.6495732,43.6495732,"street_address","small","#4f4","restaurant"
"2318",NA,"ENOCTEA","2318","Yes","88 PEPPERRELL","KITTERY POINT","ME","207-703-0153","ENOCTEA","88 PEPPERRELL","KITTERY POINT","YORK","2318","V-M","06/28/2015","OFF",43.7411331,43.7411331,"street_address","small","#4f4","restaurant"
"2321",NA,"LIMERICK VILLAGE VARIETY","2321","Yes","32 MAIN STREET","LIMERICK","ME","793-8230","LIMERICK VILLAGE VARIETY","32 MAIN STREET","LIMERICK","YORK","2321","M-V","02/02/2015","OFF",43.88999,43.88999,"street_address","small","#4f4","restaurant"
"2322",NA,"KEZAR FALLS MARKET","2322","Yes","17 BRIDGE STREET","PORTER","ME","625-3336","KEZAR FALLS MARKET","17 BRIDGE STREET","PORTER","OXFORD","2322","M-V","05/13/2015","OFF",43.654573,43.654573,"street_address","small","#4f4","restaurant"
"233",NA,"BOONIES  COUNTRY STORE","233","Yes","1007 SHAPLEIGH CORNER ROAD","SHAPLEIGH","ME","636-2600","BOONIES  COUNTRY STORE","1007 SHAPLEIGH CORNER ROAD","SHAPLEIGH","YORK","233","V-M","03/28/2015","OFF",43.7795632,43.7795632,"street_address","small","#4f4","restaurant"
"2330",NA,"LIMERICK SUPERMARKET","2330","Yes","54 CENTRAL  AVENUE - ROUTE 11","LIMERICK","ME","793-4335","LIMERICK SUPERMARKET","54 CENTRAL  AVENUE - ROUTE 11","LIMERICK","YORK","2330","V-M","10/27/2015","OFF",43.6797568,43.6797568,"street_address","small","#4f4","restaurant"
"2334",NA,"CIRCLE K #7064","2334","Yes","393 COMMERICAL STREET","PORTLAND","ME","207-789-1993","CIRCLE K #7064","393 COMMERICAL STREET","PORTLAND","CUMBERLAND","2334","V-M","07/15/2015","OFF",43.6575061,43.6575061,"street_address","small","#4f4","restaurant"
"2335",NA,"SONNY'S CONVENIENCE STORE","2335","Yes","301 MIDDLE ROAD","LYMAN","ME","207-985-9345","SONNY'S CONVENIENCE STORE","301 MIDDLE ROAD","LYMAN","YORK","2335","V-M","04/17/2015","OFF",43.9249874,43.9249874,"street_address","small","#4f4","restaurant"
"24",NA,"RITE AID #4160","24","Yes","226 PARKER FARM ROAD","BUXTON","ME","717-214-8543","RITE AID #4160","226 PARKER FARM ROAD","BUXTON","YORK","24","V-M","04/02/2015","OFF",43.6768493,43.6768493,"street_address","small","#4f4","restaurant"
"240",NA,"RSVP","240","Yes","887 FOREST AVENUE","PORTLAND","ME","773-8808","RSVP","887 FOREST AVENUE","PORTLAND","CUMBERLAND","240","V-M","11/16/2015","OFF",43.9697437,43.9697437,"street_address","small","#4f4","restaurant"
"249",NA,"BIG APPLE FOOD STORE #1095","249","Yes","RR 1 BOX 905   MAPLE STREET","CORNISH","ME","743-9212","BIG APPLE FOOD STORE #1095","RR 1 BOX 905   MAPLE STREET","CORNISH","YORK","249","M-V","04/11/2015","OFF",43.6557396,43.6557396,"street_address","small","#4f4","restaurant"
"266",NA,"CIRCLE K #7065","266","Yes","103 US ROUTE 1 BYPASS","KITTERY","ME","207-451-9780","CIRCLE K #7065","103 US ROUTE 1 BYPASS","KITTERY","YORK","266","M-V","10/05/2015","OFF",43.6337893,43.6337893,"premise","small","#4f4","restaurant"
"278",NA,"TRAIN'S QUICK STOP, LLC","278","Yes","249 CARL BROGGY HIGHWAY","LEBANON","ME","457-3900","TRAIN'S QUICK STOP, LLC","249 CARL BROGGY HIGHWAY","LEBANON","YORK","278","V-M","04/30/2015","OFF",43.6543113,43.6543113,"street_address","small","#4f4","restaurant"
"282",NA,"BLACK TIE BISTRO AND MARKET","282","Yes","ONE UNION WHARF","PORTLAND","ME","756-6230","BLACK TIE BISTRO AND MARKET","ONE UNION WHARF","PORTLAND","CUMBERLAND","282","V-M","06/04/2015","OFF",43.8300083,43.8300083,"street_address","small","#4f4","restaurant"
"29",NA,"HILLTOP SUPERETTE","29","Yes","135 CONGRESS STREET","PORTLAND","ME","207-874-0700","HILLTOP SUPERETTE","135 CONGRESS STREET","PORTLAND","CUMBERLAND","29","V-M","06/19/2015","OFF",43.6579246,43.6579246,"street_address","small","#4f4","restaurant"
"291",NA,"J BROTHERS VARIETY","291","Yes","1680 PORTLAND ROAD","ARUNDEL","ME","207-985-1263","J BROTHERS VARIETY","1680 PORTLAND ROAD","ARUNDEL","YORK","291","V-M","07/27/2015","OFF",43.532742,43.532742,"street_address","small","#4f4","restaurant"
"292",NA,"MOBIL ON THE RUN PORTLAND","292","Yes","1196 CONGRESS STREET","PORTLAND","ME","207-774-8047","MOBIL ON THE RUN PORTLAND","1196 CONGRESS STREET","PORTLAND","CUMBERLAND","292","M-V","02/28/2015","OFF",43.7322845,43.7322845,"route","small","#4f4","restaurant"
"295",NA,"ROGERS SUPA DOLLA","295","Yes","81 COTTAGE STREET","SANFORD","ME","324-2432","ROGERS SUPA DOLLA","81 COTTAGE STREET","SANFORD","YORK","295","V-M","02/15/2015","OFF",43.8358787,43.8358787,"street_address","small","#4f4","restaurant"
"296",NA,"7-ELEVEN 32537B","296","Yes","170 BRIGHTON AVENUE","PORTLAND","ME","207-775-5940","7-ELEVEN 32537B","170 BRIGHTON AVENUE","PORTLAND","CUMBERLAND","296","V-M","03/31/2015","OFF",43.6835831,43.6835831,"street_address","small","#4f4","restaurant"
"298",NA,"QUINN'S JOCKEY CAP MOTEL AND COUNTRY STORE","298","Yes","116 BRIDGETON ROAD","FRYEBURG","ME","207-935-2306","QUINN'S JOCKEY CAP MOTEL AND COUNTRY
STORE","116 BRIDGETON ROAD","FRYEBURG","OXFORD","298","V-M","06/01/2015","OFF",43.9573412,43.9573412,"street_address","small","#4f4","restaurant"
"3000",NA,"EAGLES #4392, WATERBORO AERIE","3000","Yes","1050  MAIN STREET","WATERBORO","ME","247-8488","EAGLES #4392, WATERBORO AERIE","1050  MAIN STREET","WATERBORO","YORK","3000","S-V-M","07/31/2015","ON",44.0539989,44.0539989,"street_address","small","#f44","restaurant"
"3017",NA,"AMERICAN LEGION #161   PAUL MALLIA POST","3017","Yes","42 ATLANTIC AVENUE","PORTLAND","ME","772-9314","AMERICAN LEGION #161   PAUL MALLIA
POST","42 ATLANTIC AVENUE","PORTLAND","CUMBERLAND","3017","S-V-M","12/11/2014","ON",43.6522752,43.6522752,"street_address","small","#f44","restaurant"
"3018",NA,"AMERICAN LEGION POST #17 HAROLD T. ANDREWS","3018","Yes","23 DEERING STREET","PORTLAND","ME","773-8932","AMERICAN LEGION POST #17 HAROLD T.
ANDREWS","23 DEERING STREET","PORTLAND","CUMBERLAND","3018","S-V-M","12/31/2015","ON",43.912707,43.912707,"street_address","small","#f44","restaurant"
"3020",NA,"EAGLES #4030 KENNEBUNKPORT AEIRE","3020","Yes","2397 PORTLAND RD","ARUNDEL","ME","283-1440","EAGLES #4030 KENNEBUNKPORT AEIRE","2397 PORTLAND RD","ARUNDEL","YORK","3020","S-V-M","05/12/2015","ON",43.648956,43.648956,"street_address","small","#f44","restaurant"
"3021",NA,"BIDDEFORD-SACO ELKS #1597","3021","Yes","68 OCEAN PARK ROAD","SACO","ME","283-1597","BIDDEFORD-SACO ELKS #1597","68 OCEAN PARK ROAD","SACO","YORK","3021","S-V-M","08/08/2015","ON",43.7959438,43.7959438,"street_address","small","#f44","restaurant"
"3027",NA,"VFW # 7997 ORCHARD BEACH MEMORIAL POST","3027","Yes","76 ATLANTIC AVENUE","OLD ORCHARD BEACH","ME","934-9910","VFW # 7997 ORCHARD BEACH MEMORIAL POST","76 ATLANTIC AVENUE","OLD ORCHARD BEACH","YORK","3027","S-V-M","09/30/2015","ON",43.678883,43.678883,"street_address","small","#f44","restaurant"
"3028",NA,"AMVETS #25, CHARLES J. LORING POST","3028","Yes","186 WASHINGTON AVE","PORTLAND","ME","772-9577","AMVETS #25, CHARLES J. LORING POST","186 WASHINGTON AVE","PORTLAND","CUMBERLAND","3028","S-V-M","02/06/2015","ON",43.8121357,43.8121357,"street_address","small","#f44","restaurant"
"3032",NA,"ELKS LODGE #2788","3032","Yes","1704 US ROUTE ONE","YORK","ME","","ELKS LODGE #2788","1704 US ROUTE ONE","YORK","YORK","3032","S-V-M","01/13/2015","ON",43.7039172,43.7039172,"street_address","small","#f44","restaurant"
"3033",NA,"ROCHAMBEAU CLUB","3033","Yes","329 SOUTH STREET","BIDDEFORD","ME","283-3823","ROCHAMBEAU CLUB","329 SOUTH STREET","BIDDEFORD","YORK","3033","S-V-M","07/01/2015","ON",43.6610755,43.6610755,"street_address","small","#f44","restaurant"
"3037",NA,"AMERICAN LEGION #56  RAMSDELL-ROGERS POST","3037","Yes","9 HANNAFORD DRIVE","YORK","ME","363-0376","AMERICAN LEGION #56  RAMSDELL-ROGERS
POST","9 HANNAFORD DRIVE","YORK","YORK","3037","S-V-M","06/11/2015","ON",43.7218494,43.7218494,"street_address","small","#f44","restaurant"
"3039",NA,"CUMBERLAND CLUB","3039","Yes","116 HIGH STREET","PORTLAND","ME","773-6402","CUMBERLAND CLUB","116 HIGH STREET","PORTLAND","CUMBERLAND","3039","S-V-M","12/31/2014","ON",43.6532731,43.6532731,"street_address","small","#f44","restaurant"
"3043",NA,"EAGLES #804 BIDDEFORD AERIE","3043","Yes","57 BIRCH STREET","BIDDEFORD","ME","282-4026","EAGLES #804 BIDDEFORD AERIE","57 BIRCH STREET","BIDDEFORD","YORK","3043","S-V-M","12/29/2014","ON",43.6536343,43.6536343,"street_address","small","#f44","restaurant"
"3046",NA,"EAGLES # 565 CASCO AERIE","3046","Yes","184 ST. JOHN STREET","PORTLAND","ME","773-9448","EAGLES # 565 CASCO AERIE","184 ST. JOHN STREET","PORTLAND","CUMBERLAND","3046","S-V-M","11/27/2015","ON",43.6342134,43.6342134,"street_address","small","#f44","restaurant"
"306",NA,"RITE AID #4140","306","Yes","151 MAPLE STREET","CORNISH","ME","717-214-8543","RITE AID #4140","151 MAPLE STREET","CORNISH","YORK","306","V-M","11/15/2015","OFF",43.655653,43.655653,"street_address","small","#4f4","restaurant"
"3060",NA,"ELKS LODGE #188 PORTLAND","3060","Yes","1945 CONGRESS STREET","PORTLAND","ME","773-7396","ELKS LODGE #188 PORTLAND","1945 CONGRESS STREET","PORTLAND","CUMBERLAND","3060","S-V-M","01/25/2015","ON",43.628465,43.628465,"street_address","small","#f44","restaurant"
"3063",NA,"YORK COUNTY VETERANS ALLIANCE","3063","Yes","24 BRADBURY STREET","BIDDEFORD","ME","294-7330","YORK COUNTY VETERANS ALLIANCE","24 BRADBURY STREET","BIDDEFORD","YORK","3063","S-V-M","08/28/2015","ON",43.6335133,43.6335133,"subpremise","small","#f44","restaurant"
"3071",NA,"LAFAYETTE SOCIAL CLUB","3071","Yes","48 WINTER STREET","SANFORD","ME","","LAFAYETTE SOCIAL CLUB","48 WINTER STREET","SANFORD","YORK","3071","S-V-M","12/31/2014","ON",43.6551785,43.6551785,"street_address","small","#f44","restaurant"
"3082",NA,"SANFORD LODGE OF ELKS #1470","3082","Yes","13  ELM STREET","SANFORD","ME","324-8184","SANFORD LODGE OF ELKS #1470","13  ELM STREET","SANFORD","YORK","3082","S-V-M","01/31/2015","ON",43.6238575,43.6238575,"street_address","small","#f44","restaurant"
"3084",NA,"ITALIAN HERITAGE CENTER, THE","3084","Yes","40 WESTLAND AVENUE","PORTLAND","ME","772-2500","ITALIAN HERITAGE CENTER, THE","40 WESTLAND AVENUE","PORTLAND","CUMBERLAND","3084","S-V-M","12/22/2015","ON",43.6311278,43.6311278,"premise","small","#f44","restaurant"
"3094",NA,"VFW POST #9935","3094","Yes","1 HUTCHINSON STREET","SANFORD","ME","324-1142","VFW POST #9935","1 HUTCHINSON STREET","SANFORD","YORK","3094","S-V-M","12/31/2014","ON",43.6753531,43.6753531,"street_address","small","#f44","restaurant"
"3097",NA,"AMVETS #1 MERTON IRA STAPLES","3097","Yes","147 ALFRED STREET","BIDDEFORD","ME","282-9461","AMVETS #1 MERTON IRA STAPLES","147 ALFRED STREET","BIDDEFORD","YORK","3097","S-V-M","08/03/2015","ON",43.659861,43.659861,"street_address","small","#f44","restaurant"
"3098",NA,"VFW POST # 6977 BOARDMAN ELLIS POST","3098","Yes","75 CAPE NEDDICK ROAD","YORK BEACH","ME","363-9827","VFW POST # 6977 BOARDMAN ELLIS POST","75 CAPE NEDDICK ROAD","YORK BEACH","YORK","3098","S-V-M","12/31/2014","ON",43.729235,43.729235,"street_address","small","#f44","restaurant"
"3101",NA,"WOLVES SOCIAL CLUB","3101","Yes","40 HIGH STREET","SANFORD","ME","490-2529","WOLVES SOCIAL CLUB","40 HIGH STREET","SANFORD","YORK","3101","S-V-M","12/31/2014","ON",43.5670888,43.5670888,"street_address","small","#f44","restaurant"
"3102",NA,"TRAILBLAZERS","3102","Yes","102 BILLS LANE","WELLS","ME","646-9718","TRAILBLAZERS","102 BILLS LANE","WELLS","YORK","3102","S-V-M","04/18/2015","ON",43.6947391,43.6947391,"street_address","small","#f44","restaurant"
"3105",NA,"SPRINGVALE SOCIAL CLUB","3105","Yes","22 BRIDGE STREET","SPRINGVALE","ME","324-1073","SPRINGVALE SOCIAL CLUB","22 BRIDGE STREET","SPRINGVALE","YORK","3105","S-V-M","12/31/2014","ON",43.653674,43.653674,"street_address","small","#f44","restaurant"
"3117",NA,"VFW POST #6859 DEERING MEMORIAL","3117","Yes","687 FOREST AVENUE","PORTLAND","ME","773-8745","VFW POST #6859 DEERING MEMORIAL","687 FOREST AVENUE","PORTLAND","CUMBERLAND","3117","S-V-M","12/31/2014","ON",44.1104299,44.1104299,"street_address","small","#f44","restaurant"
"3126",NA,"AMVETS POST #3, MOORE-MICHAUD- BATCHELDER POST #3","3126","Yes","169 LOWER SCHOOL STREET","SANFORD","ME","324-1661","AMVETS POST #3, MOORE-MICHAUD- BATCHELDER POST
#3","169 LOWER SCHOOL STREET","SANFORD","YORK","3126","S-V-M","06/11/2015","ON",43.844695,43.844695,"street_address","small","#f44","restaurant"
"3130",NA,"YORK HARBOR READING ROOM","3130","Yes","491 YORK STREET","YORK HARBOR","ME","363-2450","YORK HARBOR READING ROOM","491 YORK STREET","YORK HARBOR","YORK","3130","S-V-M","04/30/2015","ON",43.9146221,43.9146221,"street_address","small","#f44","restaurant"
"3142",NA,"EAGLES # 3792 SACO AERIE","3142","Yes","9 SPRING STREET","SACO","ME","283-0025","EAGLES # 3792 SACO AERIE","9 SPRING STREET","SACO","YORK","3142","S-V-M","12/13/2014","ON",43.7244179,43.7244179,"street_address","small","#f44","restaurant"
"3151",NA,"AMERICAN LEGION #19  THOMAS W COLE POST","3151","Yes","656 MAIN STREET","SPRINGVALE","ME","324-5354","AMERICAN LEGION #19  THOMAS W COLE
POST","656 MAIN STREET","SPRINGVALE","YORK","3151","S-V-M","04/19/2015","ON",43.6582367,43.6582367,"street_address","small","#f44","restaurant"
"3153",NA,"SEVERANCE LODGE CLUB INC.","3153","Yes","100 SEVERANCE LODGE ROAD","CENTER LOVELL","ME","925-3100","SEVERANCE LODGE CLUB INC.","100 SEVERANCE LODGE ROAD","CENTER LOVELL","OXFORD","3153","S-V-M","06/19/2015","ON",43.732568,43.732568,"street_address","small","#f44","restaurant"
"317",NA,"HANNAFORD  #8138","317","Yes","532 MAIN STREET","SACO","ME","282-4152","HANNAFORD  #8138","532 MAIN STREET","SACO","YORK","317","M-V","05/10/2015","OFF",43.85735,43.85735,"locality","small","#4f4","restaurant"
"3172",NA,"WELLS LODGE OF ELKS #2738","3172","Yes","356 BALD HILL ROAD","WELLS","ME","646-2427","WELLS LODGE OF ELKS #2738","356 BALD HILL ROAD","WELLS","YORK","3172","S-V-M","09/25/2015","ON",43.916293,43.916293,"street_address","small","#f44","restaurant"
"318",NA,"CVS PHARMACY #608","318","Yes","1096 BRIGHTON AVE. - PINE TREE SHOPPING CTR","PORTLAND","ME","207-772-8601","CVS PHARMACY #608","1096 BRIGHTON AVE. - PINE TREE SHOPPING
CTR","PORTLAND","CUMBERLAND","318","M-V","06/27/2015","OFF",43.654403,43.654403,"street_address","small","#4f4","restaurant"
"324",NA,"PAUL'S FOOD CENTER","324","Yes","585 CONGRESS STREET","PORTLAND","ME","772-3704","PAUL'S FOOD CENTER","585 CONGRESS STREET","PORTLAND","CUMBERLAND","324","M-V","09/28/2015","OFF",43.6562141,43.6562141,"street_address","small","#4f4","restaurant"
"327",NA,"THREE D'S VARIETY","327","Yes","165 MAIN STREET, SUITE #102","BIDDEFORD","ME","286-8771","THREE D'S VARIETY","165 MAIN STREET, SUITE #102","BIDDEFORD","YORK","327","M-V","06/01/2015","OFF",44.0371292,44.0371292,"premise","small","#4f4","restaurant"
"339",NA,"MACDONALD'S BEACH CONVENIENCE","339","Yes","37 SACO AVENUE","OLD ORCHARD BEACH","ME","934-2681","MACDONALD'S BEACH CONVENIENCE","37 SACO AVENUE","OLD ORCHARD BEACH","YORK","339","V-M","05/21/2015","OFF",43.8484288,43.8484288,"street_address","small","#4f4","restaurant"
"34",NA,"JERRY'S MARKET","34","Yes","1022 MAIN STREET","SANFORD","ME","324-5834","JERRY'S MARKET","1022 MAIN STREET","SANFORD","YORK","34","M-V","10/03/2015","OFF",43.917868,43.917868,"street_address","small","#4f4","restaurant"
"348",NA,"BIG APPLE FOOD STORE 1089, THE","348","Yes","16 WASHINGTON AVENUE","PORTLAND","ME","743-9212","BIG APPLE FOOD STORE 1089, THE","16 WASHINGTON AVENUE","PORTLAND","CUMBERLAND","348","M-V","07/29/2015","OFF",43.6578918,43.6578918,"street_address","small","#4f4","restaurant"
"363",NA,"MAINE SMOKE SHOP #102","363","Yes","804 WASHINGTON AVENUE","PORTLAND","ME","879-4529","MAINE SMOKE SHOP #102","804 WASHINGTON AVENUE","PORTLAND","CUMBERLAND","363","V-M","09/13/2015","OFF",43.546239,43.546239,"street_address","small","#4f4","restaurant"
"374",NA,"EDDIE'S VARIETY","374","Yes","377 AUBURN STREET","PORTLAND","ME","797-4796","EDDIE'S VARIETY","377 AUBURN STREET","PORTLAND","CUMBERLAND","374","M-V","07/28/2015","OFF",43.6567208,43.6567208,"street_address","small","#4f4","restaurant"
"378",NA,"HONEY EXCHANGE, THE","378","Yes","494 STEVENS AVE.","PORTLAND","ME","207-773-9333","HONEY EXCHANGE, THE","494 STEVENS AVE.","PORTLAND","CUMBERLAND","378","M-V","08/17/2015","OFF",43.6795314,43.6795314,"locality","small","#4f4","restaurant"
"38",NA,"ROSEMONT MARKET","38","Yes","5 COMMERCIAL STREET","PORTLAND","ME","207-939-5053","ROSEMONT MARKET","5 COMMERCIAL STREET","PORTLAND","CUMBERLAND","38","M-V","11/19/2014","OFF",43.6397209,43.6397209,"street_address","small","#4f4","restaurant"
"383",NA,"COASTAL DISCOUNT BEVERAGE & REDEMPTION, INC.","383","Yes","559 ELM STREET","BIDDEFORD","ME","284-2241","COASTAL DISCOUNT BEVERAGE & REDEMPTION,
INC.","559 ELM STREET","BIDDEFORD","YORK","383","V-M","12/28/2014","OFF",43.5936424,43.5936424,"street_address","small","#4f4","restaurant"
"391",NA,"JAKE'S QUIK-STOP","391","Yes","205 BRIGHTON AVENUE","PORTLAND","ME","207-831-3896","JAKE'S QUIK-STOP","205 BRIGHTON AVENUE","PORTLAND","CUMBERLAND","391","V-M","09/20/2015","OFF",43.909555,43.909555,"street_address","small","#4f4","restaurant"
"392",NA,"CUMBERLAND FARMS #5599","392","Yes","31 ELM STREET","SACO","ME","207-282-3317","CUMBERLAND FARMS #5599","31 ELM STREET","SACO","YORK","392","V-M","09/30/2015","OFF",43.6563475,43.6563475,"street_address","small","#4f4","restaurant"
"393",NA,"RITE AID #10302","393","Yes","15 SHAPLEIGH ROAD","KITTERY","ME","717-214-8543","RITE AID #10302","15 SHAPLEIGH ROAD","KITTERY","YORK","393","M-V","07/10/2015","OFF",43.9178468,43.9178468,"street_address","small","#4f4","restaurant"
"4004",NA,"VILLAGE BY THE SEA","4004","Yes","1373 POST ROAD","WELLS","ME","646-1100","VILLAGE BY THE SEA","1373 POST ROAD","WELLS","YORK","4004","S-V-M","11/17/2015","ON",43.8338775,43.8338775,"street_address","small","#f44","restaurant"
"401",NA,"D & H CONVENIENCE STORE","401","Yes","1041 CLARKS MILLS ROAD","DAYTON","ME","499-7370","D & H CONVENIENCE STORE","1041 CLARKS MILLS ROAD","DAYTON","YORK","401","M-V","10/24/2014","OFF",43.6645207,43.6645207,"street_address","small","#4f4","restaurant"
"4010",NA,"BREAKWATER INN, THE","4010","Yes","131-133 OCEAN AVE","KENNEBUNKPORT","ME","967-3118","BREAKWATER INN, THE","131-133 OCEAN AVE","KENNEBUNKPORT","YORK","4010","S-V-M","07/12/2015","ON",43.9732725,43.9732725,"street_address","small","#f44","restaurant"
"402",NA,"BIG APPLE FOOD STORE #1026","402","Yes","2 PARK AVENUE","PORTLAND","ME","207-743-9212","BIG APPLE FOOD STORE #1026","2 PARK AVENUE","PORTLAND","CUMBERLAND","402","M-V","05/29/2015","OFF",43.6570426,43.6570426,"street_address","small","#4f4","restaurant"
"4020",NA,"SEASON'S GRILLE @ HOWARD JOHNSONS","4020","Yes","155 RIVERSIDE STREET","PORTLAND","ME","774-5861","SEASON'S GRILLE @ HOWARD JOHNSONS","155 RIVERSIDE STREET","PORTLAND","CUMBERLAND","4020","S-V-M","03/03/2015","ON",43.94154,43.94154,"street_address","small","#f44","restaurant"
"4021",NA,"KENNEBUNKPORT INN","4021","Yes","ONE DOCK SQUARE","KENNEBUNKPORT","ME","967-2621","KENNEBUNKPORT INN","ONE DOCK SQUARE","KENNEBUNKPORT","YORK","4021","S-V-M","03/15/2015","ON",43.6474588,43.6474588,"street_address","small","#f44","restaurant"
"4023",NA,"UNION BLUFF HOTEL, THE","4023","Yes","8 BEACH STREET            **TEMP THRU 11/06/2014**","YORK BEACH","ME","363-1333","UNION BLUFF HOTEL, THE","8 BEACH STREET		**TEMP THRU
11/06/2014**","YORK BEACH","YORK","4023","S-V-M","10/20/2014","ON",43.6555423,43.6555423,"street_address","small","#f44","restaurant"
"4025",NA,"UNION BLUFF MEETING HOUSE, THE","4025","Yes","4 BEACH STREET","YORK BEACH","ME","363-1333","UNION BLUFF MEETING HOUSE, THE","4 BEACH STREET","YORK BEACH","YORK","4025","S-V-M","08/20/2015","ON",43.5724398,43.5724398,"street_address","small","#f44","restaurant"
"4026",NA,"STAGE NECK INN","4026","Yes","8 STAGE NECK ROAD","YORK","ME","363-3850","STAGE NECK INN","8 STAGE NECK ROAD","YORK","YORK","4026","S-V-M","03/31/2015","ON",43.665633,43.665633,"street_address","small","#f44","restaurant"
"4029",NA,"BEACHMERE INN","4029","Yes","62 BEACHMERE PLACE","OGUNQUIT","ME","646-2021","BEACHMERE INN","62 BEACHMERE PLACE","OGUNQUIT","YORK","4029","S-V-M","06/18/2015","ON",43.8803094,43.8803094,"street_address","small","#f44","restaurant"
"403",NA,"CAT 'N-NINE TAILS COUNTRY STORE","403","Yes","1294 US ROUTE ONE","CAPE NEDDICK","ME","363-5572","CAT 'N-NINE TAILS COUNTRY STORE","1294 US ROUTE ONE","CAPE NEDDICK","YORK","403","M-V","09/20/2015","OFF",43.7001208,43.7001208,"street_address","small","#4f4","restaurant"
"4043",NA,"FIRESIDE INN & SUITES PORTLAND","4043","Yes","81 RIVERSIDE STREET","PORTLAND","ME","774-5601","FIRESIDE INN & SUITES PORTLAND","81 RIVERSIDE STREET","PORTLAND","CUMBERLAND","4043","S-V-M","06/28/2015","ON",43.7358803,43.7358803,"street_address","small","#f44","restaurant"
"4048",NA,"NONANTUM RESORT","4048","Yes","95 OCEAN AVENUE","KENNEBUNKPORT","ME","967-4050","NONANTUM RESORT","95 OCEAN AVENUE","KENNEBUNKPORT","YORK","4048","S-V-M","04/12/2015","ON",43.6496053,43.6496053,"street_address","small","#f44","restaurant"
"4055",NA,"HOLIDAY INN BY THE BAY","4055","Yes","88 SPRING STREET","PORTLAND","ME","775-2311","HOLIDAY INN BY THE BAY","88 SPRING STREET","PORTLAND","CUMBERLAND","4055","S-V-M","04/30/2015","ON",44.0544789,44.0544789,"street_address","small","#f44","restaurant"
"4056",NA,"VILLAGE COVE INN","4056","Yes","29 SOUTH MAIN STREET","KENNEBUNKPORT","ME","967-3993","VILLAGE COVE INN","29 SOUTH MAIN STREET","KENNEBUNKPORT","YORK","4056","S-V-M","06/06/2015","ON",43.7842067,43.7842067,"street_address","small","#f44","restaurant"
"4065",NA,"RHUMB LINE RESORT","4065","Yes","41 TURBATS CREEK ROAD","KENNEBUNKPORT","ME","967-5457","RHUMB LINE RESORT","41 TURBATS CREEK ROAD","KENNEBUNKPORT","YORK","4065","S-V-M","02/01/2015","ON",43.6551817,43.6551817,"street_address","small","#f44","restaurant"
"4076",NA,"ONE SOHO SQUARE BEVERAGES","4076","Yes","43 WEST GRAND AVENUE","OLD ORCHARD BEACH","ME","934-1300","ONE SOHO SQUARE BEVERAGES","43 WEST GRAND AVENUE","OLD ORCHARD BEACH","YORK","4076","S-V-M","08/22/2015","ON",43.642704,43.642704,"street_address","small","#f44","restaurant"
"4081",NA,"EMBASSY SUITES","4081","Yes","1050 WESTBROOK ST","PORTLAND","ME","775-2200","EMBASSY SUITES","1050 WESTBROOK ST","PORTLAND","CUMBERLAND","4081","S-V-M","03/26/2015","ON",43.6592563,43.6592563,"street_address","small","#f44","restaurant"
"4086",NA,"OGUNQUIT RIVER INN & SUITES","4086","Yes","17 POST ROAD","WELLS","ME","646-9611","OGUNQUIT RIVER INN & SUITES","17 POST ROAD","WELLS","YORK","4086","S-V-M","09/23/2015","ON",43.8297274,43.8297274,"street_address","small","#f44","restaurant"
"4108",NA,"ANCHORAGE MOTOR INN OF YORK, INC.","4108","Yes","265 LONG BEACH AVENUE","YORK","ME","363-5112","ANCHORAGE MOTOR INN OF YORK, INC.","265 LONG BEACH AVENUE","YORK","YORK","4108","S-V-M","05/11/2015","ON",43.6535207,43.6535207,"street_address","small","#f44","restaurant"
"411",NA,"CONGRESS STREET CLIPPER MART","411","Yes","1199 CONGRESS STREET","PORTLAND","ME","207-775-7980","CONGRESS STREET CLIPPER MART","1199 CONGRESS STREET","PORTLAND","CUMBERLAND","411","V-M","05/25/2015","OFF",43.9698364,43.9698364,"street_address","small","#4f4","restaurant"
"4113",NA,"PORTLAND REGENCY HOTEL, THE","4113","Yes","20 MILK STREET","PORTLAND","ME","774-4200","PORTLAND REGENCY HOTEL, THE","20 MILK STREET","PORTLAND","CUMBERLAND","4113","S-V-M","04/03/2015","ON",44.0544515,44.0544515,"street_address","small","#f44","restaurant"
"4119",NA,"EDGEWATER INN, THE","4119","Yes","126 OCEAN AVENUE","KENNEBUNKPORT","ME","967-3315","EDGEWATER INN, THE","126 OCEAN AVENUE","KENNEBUNKPORT","YORK","4119","S-V-M","02/19/2015","ON",43.6318347,43.6318347,"street_address","small","#f44","restaurant"
"4125",NA,"KENNEBUNK INN, THE","4125","Yes","45 MAIN STREET","KENNEBUNK","ME","985-3351","KENNEBUNK INN, THE","45 MAIN STREET","KENNEBUNK","YORK","4125","S-V-M","04/13/2015","ON",43.6593608,43.6593608,"street_address","small","#f44","restaurant"
"4127",NA,"PLEASANT POINT INN","4127","Yes","145 PLEASANT POINT ROAD","CENTER LOVELL","ME","925-3008","PLEASANT POINT INN","145 PLEASANT POINT ROAD","CENTER LOVELL","OXFORD","4127","S-V-M","06/05/2015","ON",43.656843,43.656843,"street_address","small","#f44","restaurant"
"4128",NA,"WESTMEADOW PUB","4128","Yes","74 MAIN STREET","OGUNQUIT","ME","646-9661","WESTMEADOW PUB","74 MAIN STREET","OGUNQUIT","YORK","4128","S-V-M","12/21/2014","ON",43.6335133,43.6335133,"subpremise","small","#f44","restaurant"
"4135",NA,"KINGS PORT INN","4135","Yes","18 WESTERN AVENUE","KENNEBUNK","ME","967-4340","KINGS PORT INN","18 WESTERN AVENUE","KENNEBUNK","YORK","4135","S-V-M","07/24/2015","ON",43.8598396,43.8598396,"street_address","small","#f44","restaurant"
"4138",NA,"WHITE BARN INN","4138","Yes","37 BEACH STREET","KENNEBUNK","ME","967-2321","WHITE BARN INN","37 BEACH STREET","KENNEBUNK","YORK","4138","S-V-M","02/21/2015","ON",43.6668226,43.6668226,"street_address","small","#f44","restaurant"
"4147",NA,"RESIDENCE INN BY MARRIOTT HOTEL","4147","Yes","145 FORE STREET","PORTLAND","ME","207-761-1660","RESIDENCE INN BY MARRIOTT HOTEL","145 FORE STREET","PORTLAND","CUMBERLAND","4147","S-V-M","07/07/2015","ON",43.6508124,43.6508124,"route","small","#f44","restaurant"
"4150",NA,"WESTIN PORTLAND HARBORVIEW","4150","Yes","157 HIGH STREET                 **TEMP THRU 01/31/32015**","PORTLAND","ME","775-5411","WESTIN PORTLAND HARBORVIEW","157 HIGH STREET		      **TEMP THRU
01/31/32015**","PORTLAND","CUMBERLAND","4150","S-V-M","12/09/2014","ON",43.6554707,43.6554707,"street_address","small","#f44","restaurant"
"416",NA,"BIDDEFORD MARKET","416","Yes","316 MAIN STREET","BIDDEFORD","ME","207-494-8683","BIDDEFORD MARKET","316 MAIN STREET","BIDDEFORD","YORK","416","V-M","06/26/2015","OFF",43.6797109,43.6797109,"street_address","small","#4f4","restaurant"
"4161",NA,"ANCHORAGE BY THE SEA","4161","Yes","125 SHORE ROAD","OGUNQUIT","ME","646-9384","ANCHORAGE BY THE SEA","125 SHORE ROAD","OGUNQUIT","YORK","4161","S-V-M","05/21/2015","ON",43.857042,43.857042,"street_address","small","#f44","restaurant"
"4163",NA,"TOWN HOUSE PUB","4163","Yes","5 STORER STREET","SACO","ME","284-4711","TOWN HOUSE PUB","5 STORER STREET","SACO","YORK","4163","S-V-M","09/22/2015","ON",43.680284,43.680284,"street_address","small","#f44","restaurant"
"4164",NA,"RAMADA INN & EXPRESS EVENTS CATERING","4164","Yes","352 NORTH STREET","SACO","ME","286-9600","RAMADA INN & EXPRESS EVENTS CATERING","352 NORTH STREET","SACO","YORK","4164","S-V-M","03/04/2015","ON",43.8407487,43.8407487,"street_address","small","#f44","restaurant"
"4167",NA,"YORK HARBOR INN","4167","Yes","480 YORK STREET","YORK HARBOR","ME","363-5119","YORK HARBOR INN","480 YORK STREET","YORK HARBOR","YORK","4167","S-V-M","05/14/2015","ON",43.913361,43.913361,"street_address","small","#f44","restaurant"
"4176",NA,"CAPE ARUNDEL INN","4176","Yes","208 OCEAN AVENUE","KENNEBUNK","ME","967-2125","CAPE ARUNDEL INN","208 OCEAN AVENUE","KENNEBUNK","YORK","4176","S-V-M","05/15/2015","ON",43.632974,43.632974,"street_address","small","#f44","restaurant"
"4179",NA,"BREAKWATER HOTEL","4179","Yes","127 OCEAN AVENUE","KENNEBUNKPORT","ME","967-5333","BREAKWATER HOTEL","127 OCEAN AVENUE","KENNEBUNKPORT","YORK","4179","S-V-M","04/24/2015","ON",43.714986,43.714986,"bus_station","small","#f44","restaurant"
"4182",NA,"CLARION HOTEL","4182","Yes","1230 CONGRESS ST","PORTLAND","ME","774-5611","CLARION HOTEL","1230 CONGRESS ST","PORTLAND","CUMBERLAND","4182","S-V-M","01/30/2015","ON",43.6544178,43.6544178,"street_address","small","#f44","restaurant"
"4184",NA,"HILTON GARDEN INN PORTLAND DOWNTOWN","4184","Yes","65 COMMERCIAL ST","PORTLAND","ME","780-0780","HILTON GARDEN INN PORTLAND DOWNTOWN","65 COMMERCIAL ST","PORTLAND","CUMBERLAND","4184","S-V-M","06/11/2015","ON",43.5402849,43.5402849,"street_address","small","#f44","restaurant"
"4187",NA,"PORTLAND HARBOR HOTEL","4187","Yes","468 FORE STREET","PORTLAND","ME","775-9090","PORTLAND HARBOR HOTEL","468 FORE STREET","PORTLAND","CUMBERLAND","4187","S-V-M","07/11/2015","ON",44.0503522,44.0503522,"street_address","small","#f44","restaurant"
"4188",NA,"ALOUETTE BEACH RESORT","4188","Yes","91  EAST GRAND AVE","OLD ORCHARD BEACH","ME","(207)934-4151","ALOUETTE BEACH RESORT","91  EAST GRAND AVE","OLD ORCHARD BEACH","YORK","4188","M-V","06/29/2015","ON",44.007134,44.007134,"street_address","small","#f44","restaurant"
"419",NA,"HANNAFORD #8351","419","Yes","295 FOREST AVENUE","PORTLAND","ME","761-5965","HANNAFORD #8351","295 FOREST AVENUE","PORTLAND","CUMBERLAND","419","V-M","03/08/2015","OFF",43.8370816,43.8370816,"street_address","small","#4f4","restaurant"
"4198",NA,"COLONY HOTEL, THE","4198","Yes","140 OCEAN AVENUE","KENNEBUNKPORT","ME","967-3331","COLONY HOTEL, THE","140 OCEAN AVENUE","KENNEBUNKPORT","YORK","4198","S-V-M","05/15/2015","ON",43.593349,43.593349,"street_address","small","#f44","restaurant"
"421",NA,"SPICE & GRAIN, LLC","421","Yes","17 PORTLAND ST.","FRYEBURG","ME","207-347-1703","SPICE & GRAIN, LLC","17 PORTLAND ST.","FRYEBURG","OXFORD","421","M-V","04/07/2015","OFF",43.9621476,43.9621476,"street_address","small","#4f4","restaurant"
"422",NA,"BRADBURY BROTHERS MARKET, INC.","422","Yes","167 MAIN STREET","KENNEBUNKPORT","ME","207-967-3939","BRADBURY BROTHERS MARKET, INC.","167 MAIN STREET","KENNEBUNKPORT","YORK","422","M-V","08/05/2015","OFF",43.8352208,43.8352208,"street_address","small","#4f4","restaurant"
"427",NA,"WELLS SUPER FOOD MARKET","427","Yes","1517 POST ROAD","WELLS","ME","207-641-2125","WELLS SUPER FOOD MARKET","1517 POST ROAD","WELLS","YORK","427","V-M","06/06/2015","OFF",43.803804,43.803804,"street_address","small","#4f4","restaurant"
"4302",NA,"NORSEMAN RESORT","4302","Yes","135 BEACH STREET","OGUNQUIT","ME","646-7024","NORSEMAN RESORT","135 BEACH STREET","OGUNQUIT","YORK","4302","S-V-M","06/04/2015","ON",43.858593,43.858593,"street_address","small","#f44","restaurant"
"4304",NA,"OLD FORT INN","4304","Yes","8 OLD FORT AVENUE","KENNEBUNKPORT","ME","967-5353","OLD FORT INN","8 OLD FORT AVENUE","KENNEBUNKPORT","YORK","4304","S-V-M","05/18/2015","ON",43.9682302,43.9682302,"route","small","#f44","restaurant"
"4305",NA,"TIDES BEACH CLUB","4305","Yes","254 KINGS HWY","KENNEBUNKPORT","ME","985-5132","TIDES BEACH CLUB","254 KINGS HWY","KENNEBUNKPORT","YORK","4305","S-V-M","05/25/2015","ON",43.8583079,43.8583079,"street_address","small","#f44","restaurant"
"4309",NA,"HIDDEN POND","4309","Yes","354 GOOSE ROCKS ROAD","KENNEBUNKPORT","ME","967-9050","HIDDEN POND","354 GOOSE ROCKS ROAD","KENNEBUNKPORT","YORK","4309","S-V-M","05/25/2015","ON",43.6555423,43.6555423,"street_address","small","#f44","restaurant"
"4312",NA,"BOATHOUSE HOTEL AND MARINA, THE","4312","Yes","21 OCEAN AVENUE","KENNEBUNKPORT","ME","967-8223","BOATHOUSE HOTEL AND MARINA, THE","21 OCEAN AVENUE","KENNEBUNKPORT","YORK","4312","S-V-M","05/14/2015","ON",44.053782,44.053782,"street_address","small","#f44","restaurant"
"4313",NA,"COLONIAL INN","4313","Yes","145 SHORE ROAD","OGUNQUIT","ME","646-5191","COLONIAL INN","145 SHORE ROAD","OGUNQUIT","YORK","4313","S-V-M","05/29/2015","ON",43.8336333,43.8336333,"street_address","small","#f44","restaurant"
"4314",NA,"HILTON GARDEN INN PORTLAND AIRPORT","4314","Yes","145 JETPORT BOULEVARD","PORTLAND","ME","315-445-2424","HILTON GARDEN INN PORTLAND AIRPORT","145 JETPORT BOULEVARD","PORTLAND","CUMBERLAND","4314","S-V-M","08/28/2015","ON",43.6794078,43.6794078,"street_address","small","#f44","restaurant"
"4318",NA,"HYATT PLACE PORTLAND/OLD PORT","4318","Yes","433 FORE STREET","PORTLAND","ME","775-1000","HYATT PLACE PORTLAND/OLD PORT","433 FORE STREET","PORTLAND","CUMBERLAND","4318","S-V-M","05/11/2015","ON",43.6567879,43.6567879,"street_address","small","#f44","restaurant"
"4319",NA,"CLIFF HOUSE RESORT & SPA, THE","4319","Yes","591 SHORE ROAD","YORK","ME","361-1000","CLIFF HOUSE RESORT & SPA, THE","591 SHORE ROAD","YORK","YORK","4319","S-V-M","04/07/2015","ON",43.9676824,43.9676824,"street_address","small","#f44","restaurant"
"4320",NA,"COURTYARD PORTLAND DOWNTOWN/WATERFRONT","4320","Yes","321 COMMERCIAL STREET","PORTLAND","ME","865-6105x103","COURTYARD PORTLAND DOWNTOWN/WATERFRONT","321 COMMERCIAL STREET","PORTLAND","CUMBERLAND","4320","S-V-M","05/13/2015","ON",43.6553324,43.6553324,"street_address","small","#f44","restaurant"
"438",NA,"NEIGHBORHOOD HEALTH & HERBS","438","Yes","239 MAIN STREET","SACO","ME","286-8633","NEIGHBORHOOD HEALTH & HERBS","239 MAIN STREET","SACO","YORK","438","M-V","11/05/2015","OFF",43.6556373,43.6556373,"street_address","small","#4f4","restaurant"
"440",NA,"SUDS & MORE, INC.","440","Yes","2 SHAPLEIGH ROAD","KITTERY","ME","439-0666","SUDS & MORE, INC.","2 SHAPLEIGH ROAD","KITTERY","YORK","440","V-M","12/25/2014","OFF",43.657782,43.657782,"street_address","small","#4f4","restaurant"
"452",NA,"7-ELEVEN #32532A","452","Yes","27 WASHINGTON  AVENUE","PORTLAND","ME","207-775-5260","7-ELEVEN #32532A","27 WASHINGTON  AVENUE","PORTLAND","CUMBERLAND","452","M-V","06/17/2015","OFF",43.590082,43.590082,"street_address","small","#4f4","restaurant"
"454",NA,"CVS PHARMACY #959","454","Yes","11 STEEPLE WAY","WELLS","ME","207-641-0860","CVS PHARMACY #959","11 STEEPLE WAY","WELLS","YORK","454","V-M","10/13/2015","OFF",43.6592729,43.6592729,"street_address","small","#4f4","restaurant"
"457",NA,"HIDDEN POND","457","Yes","354 GOOSE ROCKS ROAD","KENNEBUNKPORT","ME","207-967-9050","HIDDEN POND","354 GOOSE ROCKS ROAD","KENNEBUNKPORT","YORK","457","V-M","06/28/2015","OFF",43.544575,43.544575,"street_address","small","#4f4","restaurant"
"464",NA,"FOREST AVENUE MOBIL","464","Yes","518 FOREST AVENUE","PORTLAND","ME","846-0455","FOREST AVENUE MOBIL","518 FOREST AVENUE","PORTLAND","CUMBERLAND","464","M-V","06/05/2015","OFF",43.6561971,43.6561971,"premise","small","#4f4","restaurant"
"472",NA,"POOL STREET MARKET","472","Yes","77 POOL STREET","BIDDEFORD","ME","282-9824","POOL STREET MARKET","77 POOL STREET","BIDDEFORD","YORK","472","V-M","03/21/2015","OFF",44.0540997,44.0540997,"street_address","small","#4f4","restaurant"
"482",NA,"TAYLOR LOBSTER COMPANY","482","Yes","32 ROUTE 236","KITTERY","ME","439-1350","TAYLOR LOBSTER COMPANY","32 ROUTE 236","KITTERY","YORK","482","V","12/19/2014","OFF",43.6989154,43.6989154,"street_address","small","#4f4","restaurant"
"483",NA,"WOODLAND ACRES CAMPGROUND","483","Yes","33 WOODLAND ACRES DRIVE","BROWNFIELD","ME","207-935-2529","WOODLAND ACRES CAMPGROUND","33 WOODLAND ACRES DRIVE","BROWNFIELD","OXFORD","483","V-M","05/28/2015","OFF",43.6554604,43.6554604,"street_address","small","#4f4","restaurant"
"488",NA,"CHASES CONVENIENCE STORE","488","Yes","1054 SANFORD ROAD","WELLS","ME","207-646-1026","CHASES CONVENIENCE STORE","1054 SANFORD ROAD","WELLS","YORK","488","M-V","09/29/2015","OFF",43.6558841,43.6558841,"street_address","small","#4f4","restaurant"
"500",NA,"OCEANSIDE STORE","500","Yes","179 LONG BEACH AVENUE","YORK BEACH","ME","363-7942","OCEANSIDE STORE","179 LONG BEACH AVENUE","YORK BEACH","YORK","500","M-V","04/16/2015","OFF",43.681273,43.681273,"street_address","small","#4f4","restaurant"
"5003",NA,"CUMBERLAND COUNTY CIVIC CENTER","5003","Yes","ONE CIVIC CENTER SQUARE","PORTLAND","ME","775-3481","CUMBERLAND COUNTY CIVIC CENTER","ONE CIVIC CENTER SQUARE","PORTLAND","CUMBERLAND","5003","S-V-M","03/01/2015","ON",43.655335,43.655335,"street_address","small","#f44","restaurant"
"5008",NA,"NUNAN'S LOBSTER HUT","5008","Yes","9 MILLS ROAD","CAPE PORPOISE","ME","967-4362","NUNAN'S LOBSTER HUT","9 MILLS ROAD","CAPE PORPOISE","YORK","5008","M-V","04/30/2015","ON",43.658858,43.658858,"street_address","small","#f44","restaurant"
"5012",NA,"LORD'S CLAM BOX","5012","Yes","1465 MAIN STREET","SANFORD","ME","324-4700","LORD'S CLAM BOX","1465 MAIN STREET","SANFORD","YORK","5012","M-V","04/02/2015","ON",43.6854508,43.6854508,"street_address","small","#f44","restaurant"
"5014",NA,"BRUNO'S RESTAURANT & TAVERN","5014","Yes","33 ALLEN AVENUE","PORTLAND","ME","878-9511","BRUNO'S RESTAURANT & TAVERN","33 ALLEN AVENUE","PORTLAND","CUMBERLAND","5014","S-V-M","05/24/2015","ON",43.6293965,43.6293965,"street_address","small","#f44","restaurant"
"5016",NA,"CUSTOM HOUSE MARINER FLEET/CASBLANCA CRUISES","5016","Yes","18 CUSTOM HOUSE WHARF","PORTLAND","ME","774-7220","CUSTOM HOUSE MARINER FLEET/CASBLANCA
CRUISES","18 CUSTOM HOUSE WHARF","PORTLAND","CUMBERLAND","5016","S-V-M","05/09/2015","ON",43.6323799,43.6323799,"street_address","small","#f44","restaurant"
"502",NA,"HANNAFORD #8390","502","Yes","800 MAIN STREET","SANFORD","ME","207-324-1554","HANNAFORD #8390","800 MAIN STREET","SANFORD","YORK","502","V-M","12/30/2015","OFF",43.5842637,43.5842637,"street_address","small","#4f4","restaurant"
"5025",NA,"OLD PORT SEA GRILL","5025","Yes","93 COMMERCIAL ST","PORTLAND","ME","207-879-6100","OLD PORT SEA GRILL","93 COMMERCIAL ST","PORTLAND","CUMBERLAND","5025","S-V-M","10/07/2015","ON",43.650466,43.650466,"street_address","small","#f44","restaurant"
"503",NA,"ANTHONY'S FOOD SHOP, INC.","503","Yes","679 ROUTE 1","YORK","ME","363-2322","ANTHONY'S FOOD SHOP, INC.","679 ROUTE 1","YORK","YORK","503","M-V","10/08/2015","OFF",43.6393381,43.6393381,"street_address","small","#4f4","restaurant"
"5030",NA,"MIKE'S CLAM SHACK","5030","Yes","1150 POST ROAD","MOODY","ME","646-5999","MIKE'S CLAM SHACK","1150 POST ROAD","MOODY","YORK","5030","S-V-M","09/13/2015","ON",43.7631477,43.7631477,"street_address","small","#f44","restaurant"
"5042",NA,"VALLEY CHINESE CUISINE","5042","Yes","688 FOREST AVENUE","PORTLAND","ME","773-8889","VALLEY CHINESE CUISINE","688 FOREST AVENUE","PORTLAND","CUMBERLAND","5042","S-V-M","09/17/2015","ON",43.6398222,43.6398222,"street_address","small","#f44","restaurant"
"5049",NA,"SALA THAI RESTAURANT","5049","Yes","1363 WASHINGTON AVENUE","PORTLAND","ME","797-0871","SALA THAI RESTAURANT","1363 WASHINGTON AVENUE","PORTLAND","CUMBERLAND","5049","M-V","08/26/2015","ON",43.8468723,43.8468723,"street_address","small","#f44","restaurant"
"5057",NA,"WEATHERVANE SEAFOODS","5057","Yes","31 BADGERS ISLAND WEST","KITTERY","ME","439-0335","WEATHERVANE SEAFOODS","31 BADGERS ISLAND WEST","KITTERY","YORK","5057","S-V-M","06/23/2015","ON",43.656928,43.656928,"street_address","small","#f44","restaurant"
"5062",NA,"PORTLAND LOBSTER COMPANY","5062","Yes","180 - 184 COMMERCIAL STREET","PORTLAND","ME","775-2112","PORTLAND LOBSTER COMPANY","180 - 184 COMMERCIAL STREET","PORTLAND","CUMBERLAND","5062","M-V","06/08/2015","ON",43.6370349,43.6370349,"street_address","small","#f44","restaurant"
"5065",NA,"MC PERKINS COVE","5065","Yes","111 PERKINS COVE ROAD","OGUNQUIT","ME","646-6263","MC PERKINS COVE","111 PERKINS COVE ROAD","OGUNQUIT","YORK","5065","S-V-M","06/23/2015","ON",43.653301,43.653301,"street_address","small","#f44","restaurant"
"5077",NA,"FOGARTY'S RESTAURANT, INC.","5077","Yes","471 MAIN STREET","SOUTH BERWICK","ME","384-8361","FOGARTY'S RESTAURANT, INC.","471 MAIN STREET","SOUTH BERWICK","YORK","5077","M-V","12/25/2014","ON",43.797046,43.797046,"street_address","small","#f44","restaurant"
"5081",NA,"BIDDEFORD & SACO COUNTRY CLUB","5081","Yes","101 OLD ORCHARD ROAD","SACO","ME","282-9892","BIDDEFORD & SACO COUNTRY CLUB","101 OLD ORCHARD ROAD","SACO","YORK","5081","S-V-M","12/31/2014","ON",43.65755,43.65755,"street_address","small","#f44","restaurant"
"5086",NA,"KEZAR LAKE MARINA & RESTAURANT","5086","Yes","WEST LOVELL ROAD","LOVELL","ME","925-3000","KEZAR LAKE MARINA & RESTAURANT","WEST LOVELL ROAD","LOVELL","OXFORD","5086","S-V-M","05/22/2015","ON",43.6877036,43.6877036,"street_address","small","#f44","restaurant"
"5090",NA,"LONGHORN STEAKHOUSE","5090","Yes","510 MARINER WAY","BIDDEFORD","ME","294-4316","LONGHORN STEAKHOUSE","510 MARINER WAY","BIDDEFORD","YORK","5090","S-V-M","10/31/2015","ON",43.5542469,43.5542469,"street_address","small","#f44","restaurant"
"5097",NA,"ESPOS TRATTORIA","5097","Yes","1335 CONGRESS STREET","PORTLAND","ME","774-7923","ESPOS TRATTORIA","1335 CONGRESS STREET","PORTLAND","CUMBERLAND","5097","S-V-M","07/14/2015","ON",43.6814708,43.6814708,"street_address","small","#f44","restaurant"
"5100",NA,"THISTLE PIG RESTAURANT","5100","Yes","279 MAIN STREET","SOUTH BERWICK","ME","603-205-3328","THISTLE PIG RESTAURANT","279 MAIN STREET","SOUTH BERWICK","YORK","5100","S-V-M","05/18/2015","ON",43.740714,43.740714,"street_address","small","#f44","restaurant"
"5101",NA,"ERNIE'S POOL & DARTS","5101","Yes","815 FOREST AVENUE","PORTLAND","ME","761-0179","ERNIE'S POOL & DARTS","815 FOREST AVENUE","PORTLAND","CUMBERLAND","5101","M-V","08/26/2015","ON",43.6386702,43.6386702,"street_address","small","#f44","restaurant"
"511",NA,"HOGLUNDS COUNTRYSIDE BUTCHERS","511","Yes","50 WASHINGTON STREET","BIDDEFORD","ME","207-282-2882","HOGLUNDS COUNTRYSIDE BUTCHERS","50 WASHINGTON STREET","BIDDEFORD","YORK","511","V-M","06/03/2015","OFF",43.66427,43.66427,"street_address","small","#4f4","restaurant"
"5112",NA,"MAYO STREET ARTS","5112","Yes","10 MAYO STREET","PORTLAND","ME","615-3609","MAYO STREET ARTS","10 MAYO STREET","PORTLAND","CUMBERLAND","5112","M-V","06/13/2015","ON",43.8617455,43.8617455,"street_address","small","#f44","restaurant"
"5113",NA,"LAKE KEZAR COUNTRY CLUB","5113","Yes","578 MAIN STREET","LOVELL","ME","925-2462","LAKE KEZAR COUNTRY CLUB","578 MAIN STREET","LOVELL","OXFORD","5113","M-Y-V","04/14/2015","ON",43.654924,43.654924,"street_address","small","#f44","restaurant"
"5116",NA,"TRADITIONS  ITALIAN RESTAURANT","5116","Yes","162 MAIN STREET                 **TEMP THRU 01/31/2015**","SACO","ME","282-6661","TRADITIONS  ITALIAN RESTAURANT","162 MAIN STREET		      **TEMP THRU
01/31/2015**","SACO","YORK","5116","S-V-M","11/07/2014","ON",43.7068574,43.7068574,"street_address","small","#f44","restaurant"
"5117",NA,"BANDALOOP","5117","Yes","2 OCEAN AVENUE","KENNEBUNKPORT","ME","284-4697","BANDALOOP","2 OCEAN AVENUE","KENNEBUNKPORT","YORK","5117","S-V-M","03/25/2015","ON",43.983289,43.983289,"street_address","small","#f44","restaurant"
"5121",NA,"STEAKHOUSE, THE","5121","Yes","1205 POST ROAD","WELLS","ME","646-4200","STEAKHOUSE, THE","1205 POST ROAD","WELLS","YORK","5121","S-V-M","03/03/2015","ON",43.656756,43.656756,"street_address","small","#f44","restaurant"
"5123",NA,"PORTLAND PIE COMPANY","5123","Yes","51 YORK STREET","PORTLAND","ME","347-4383","PORTLAND PIE COMPANY","51 YORK STREET","PORTLAND","CUMBERLAND","5123","S-V-M","07/15/2015","ON",43.8572283,43.8572283,"street_address","small","#f44","restaurant"
"513",NA,"WINK'S","513","Yes","8 ARUNDEL ROAD","ARUNDEL","ME","967-2295","WINK'S","8 ARUNDEL ROAD","ARUNDEL","YORK","513","M-V","07/05/2015","OFF",43.6556973,43.6556973,"street_address","small","#4f4","restaurant"
